{
  "version": 0.6,
  "generator": "Overpass API 0.7.62.4 2390de5a",
  "osm3s": {
    "timestamp_osm_base": "2024-12-25T21:55:29Z",
    "timestamp_areas_base": "2024-12-25T18:03:12Z",
    "copyright": "The data included in this document is from www.openstreetmap.org. The data is made available under ODbL."
  },
  "elements": [
{
  "type": "node",
  "id": 8091423,
  "lat": 48.2489807,
  "lon": 16.3655452,
  "tags": {
    "ele": "169",
    "name": "Wien Heiligenstadt",
    "operator": "ÖBB-Infrastruktur AG",
    "platforms": "5",
    "public_transport": "station",
    "railway": "station",
    "railway:position": "2.7 / 9.6",
    "railway:position:exact": "2.678 / 9.584",
    "railway:ref": "Ht",
    "train": "yes",
    "uic_name": "Wien Heiligenstadt",
    "uic_ref": "8100269",
    "wheelchair": "yes",
    "wikidata": "Q801604",
    "wikimedia_commons": "Category:Bahnhof Wien Heiligenstadt",
    "wikipedia": "de:Bahnhof Wien Heiligenstadt"
  }
},
{
  "type": "node",
  "id": 25528004,
  "lat": 47.3866642,
  "lon": 15.0897306,
  "tags": {
    "ele": "540",
    "name": "Leoben Hauptbahnhof",
    "operator": "ÖBB-Infrastruktur AG",
    "public_transport": "station",
    "railway": "station",
    "railway:position": "16.5",
    "railway:position:exact": "16.498",
    "railway:ref": "Leb",
    "short_name": "Leoben Hbf",
    "uic_name": "Leoben Hbf",
    "uic_ref": "8100070",
    "wheelchair": "yes",
    "wikidata": "Q873541",
    "wikimedia_commons": "Category:Leoben Hauptbahnhof"
  }
},
{
  "type": "node",
  "id": 25528260,
  "lat": 47.0723984,
  "lon": 15.4165166,
  "tags": {
    "ele": "364",
    "name": "Graz Hauptbahnhof",
    "operator": "ÖBB-Infrastruktur AG",
    "public_transport": "station",
    "railway": "station",
    "railway:position": "211.4",
    "railway:position:exact": "211.355",
    "railway:ref": "G",
    "short_name": "Graz Hbf",
    "uic_name": "Graz Hbf",
    "uic_ref": "8100173",
    "wheelchair": "yes"
  }
},
{
  "type": "node",
  "id": 26827614,
  "lat": 47.3884246,
  "lon": 11.7782710,
  "tags": {
    "name": "Jenbach",
    "operator": "ÖBB-Infrastruktur AG",
    "public_transport": "station",
    "railway": "station",
    "railway:position": "40.9",
    "railway:position:exact": "40.882",
    "railway:ref": "Jb",
    "railway:ref:DB": "XAJB",
    "uic_name": "Jenbach",
    "uic_ref": "8100102",
    "wheelchair": "yes",
    "wikidata": "Q663697",
    "wikipedia": "de:Bahnhof Jenbach"
  }
},
{
  "type": "node",
  "id": 27144630,
  "lat": 47.5196061,
  "lon": 12.0939124,
  "tags": {
    "name": "Kirchbichl",
    "operator": "ÖBB-Infrastruktur AG",
    "railway": "station",
    "railway:position": "11.9",
    "railway:position:exact": "11.920",
    "railway:ref": "Kir",
    "railway:ref:DB": "XAKL",
    "uic_ref": "8100290",
    "wheelchair": "no",
    "wikidata": "Q72833763"
  }
},
{
  "type": "node",
  "id": 27322337,
  "lat": 47.4915138,
  "lon": 12.0606215,
  "tags": {
    "addr:city": "Wörgl",
    "addr:country": "AT",
    "addr:housenumber": "1",
    "addr:postcode": "6300",
    "addr:street": "Bahnhofplatz",
    "name": "Wörgl Hauptbahnhof",
    "operator": "ÖBB-Infrastruktur AG",
    "public_transport": "station",
    "railway": "station",
    "railway:position": "16.0",
    "railway:position:exact": "16.027",
    "railway:ref": "W",
    "short_name": "Wörgl Hbf",
    "uic_name": "Wörgl Hbf",
    "uic_ref": "8100099",
    "wheelchair": "yes",
    "wikidata": "Q871927",
    "wikipedia": "de:Wörgl Hauptbahnhof"
  }
},
{
  "type": "node",
  "id": 29056188,
  "lat": 47.4236383,
  "lon": 14.7465147,
  "tags": {
    "ele": "751",
    "name": "Kalwang",
    "operator": "ÖBB-Infrastruktur AG",
    "public_transport": "station",
    "railway": "station",
    "railway:position": "178.7",
    "railway:position:exact": "178.740",
    "railway:ref": "Kag",
    "uic_name": "Kalwang",
    "uic_ref": "8100126"
  }
},
{
  "type": "node",
  "id": 29056350,
  "lat": 47.7153652,
  "lon": 14.3269227,
  "tags": {
    "name": "Windischgarsten",
    "operator": "ÖBB-Infrastruktur AG",
    "public_transport": "station",
    "railway": "station",
    "railway:ref": "Win",
    "uic_name": "Windischgarsten",
    "uic_ref": "8100517",
    "wheelchair": "yes"
  }
},
{
  "type": "node",
  "id": 29056430,
  "lat": 47.7746439,
  "lon": 14.1789831,
  "tags": {
    "ele": "508",
    "name": "Hinterstoder",
    "operator": "ÖBB-Infrastruktur AG",
    "railway": "station",
    "railway:ref": "Hst",
    "uic_name": "Hinterstoder",
    "uic_ref": "8100172"
  }
},
{
  "type": "node",
  "id": 29056488,
  "lat": 47.8329908,
  "lon": 14.1551041,
  "tags": {
    "name": "Klaus",
    "operator": "ÖBB-Infrastruktur AG",
    "public_transport": "stop_position",
    "railway": "station",
    "railway:ref": "Kus",
    "train": "yes",
    "uic_name": "Klaus",
    "uic_ref": "8100171",
    "wheelchair": "yes"
  }
},
{
  "type": "node",
  "id": 29056542,
  "lat": 47.8831983,
  "lon": 14.1263374,
  "tags": {
    "name": "Micheldorf",
    "operator": "ÖBB-Infrastruktur AG",
    "public_transport": "stop_position",
    "railway": "station",
    "railway:ref": "Mid",
    "train": "yes",
    "uic_name": "Micheldorf",
    "uic_ref": "8100412"
  }
},
{
  "type": "node",
  "id": 29056558,
  "lat": 47.9065433,
  "lon": 14.1161595,
  "tags": {
    "name": "Kirchdorf an der Krems",
    "operator": "ÖBB-Infrastruktur AG",
    "public_transport": "station",
    "railway": "station",
    "railway:ref": "Kik",
    "wheelchair": "yes"
  }
},
{
  "type": "node",
  "id": 29056622,
  "lat": 47.9889541,
  "lon": 14.1215595,
  "tags": {
    "name": "Wartberg an der Krems",
    "operator": "ÖBB-Infrastruktur AG",
    "public_transport": "station",
    "railway": "station",
    "railway:ref": "Wak",
    "uic_name": "Wartberg a. d. Krems",
    "uic_ref": "8101742"
  }
},
{
  "type": "node",
  "id": 29056671,
  "lat": 48.0697197,
  "lon": 14.1915380,
  "tags": {
    "name": "Rohr-Bad Hall",
    "operator": "ÖBB-Infrastruktur AG",
    "public_transport": "station",
    "railway": "station",
    "railway:ref": "Rr",
    "uic_name": "Rohr-Bad Hall",
    "uic_ref": "8100167",
    "wheelchair": "yes"
  }
},
{
  "type": "node",
  "id": 29056690,
  "lat": 48.1130332,
  "lon": 14.2031332,
  "tags": {
    "alt_name": "Kematen-Piberbach",
    "name": "Kematen-Piberbach",
    "network": "OÖVV",
    "old_name": "Kematen a. d. Krems",
    "operator": "ÖBB-Infrastruktur AG",
    "public_transport": "station",
    "railway": "station",
    "railway:ref": "Kek",
    "uic_name": "Kematen/Krems-Piberbach",
    "uic_ref": "8101036"
  }
},
{
  "type": "node",
  "id": 29056702,
  "lat": 48.1359637,
  "lon": 14.2385020,
  "tags": {
    "name": "Neuhofen an der Krems",
    "operator": "ÖBB-Infrastruktur AG",
    "public_transport": "station",
    "railway": "station",
    "railway:ref": "Nkr",
    "uic_name": "Neuhofen a. d. Krems",
    "uic_ref": "8101255",
    "wheelchair": "limited"
  }
},
{
  "type": "node",
  "id": 29056748,
  "lat": 48.2254340,
  "lon": 14.2536855,
  "tags": {
    "name": "Traun",
    "operator": "ÖBB-Infrastruktur AG",
    "public_transport": "station",
    "railway": "station",
    "railway:ref": "T",
    "uic_name": "Traun (A)",
    "uic_ref": "8101690",
    "wheelchair": "limited",
    "wheelchair:description:de": "Bahnsteige 2 und 3 südlich über Lift und Rampe erreichbar, nördlich nur Stufen",
    "wheelchair:description:en": "reach platform 2 and 3 south via an elevator or a ramp, on the north entrance there are only stairs"
  }
},
{
  "type": "node",
  "id": 29056915,
  "lat": 48.1659478,
  "lon": 14.0265101,
  "tags": {
    "ele": "316",
    "name": "Wels Hauptbahnhof",
    "operator": "ÖBB-Infrastruktur AG",
    "platforms": "11",
    "public_transport": "station",
    "railway": "station",
    "railway:position": "212.8 / 0.0",
    "railway:position:exact": "212.815 / -0.047",
    "railway:ref": "We",
    "short_name": "Wels Hbf",
    "toilets:wheelchair": "yes",
    "uic_name": "Wels Hbf",
    "uic_ref": "8100014",
    "wheelchair": "yes",
    "wikidata": "Q872526",
    "wikipedia": "de:Wels Hauptbahnhof"
  }
},
{
  "type": "node",
  "id": 29056933,
  "lat": 48.2009977,
  "lon": 14.0994690,
  "tags": {
    "name": "Marchtrenk",
    "operator": "ÖBB-Infrastruktur AG",
    "public_transport": "station",
    "railway": "station",
    "railway:ref": "Mak",
    "toilets:wheelchair": "no",
    "uic_name": "Marchtrenk",
    "uic_ref": "8101204",
    "wheelchair": "yes"
  }
},
{
  "type": "node",
  "id": 32317930,
  "lat": 48.1449394,
  "lon": 16.9322672,
  "tags": {
    "name": "Hainburg an der Donau Kulturfabrik",
    "old_name": "Hainburg an der Donau Fbf",
    "operator": "ÖBB-Infrastruktur AG",
    "railway": "station",
    "railway:ref": "Hai",
    "uic_name": "Hainburg/Donau Kulturfabrik",
    "uic_ref": "8100958"
  }
},
{
  "type": "node",
  "id": 32436687,
  "lat": 48.2498012,
  "lon": 16.9175220,
  "tags": {
    "name": "Marchegg",
    "operator": "ÖBB-Infrastruktur AG",
    "public_transport": "station",
    "railway": "station",
    "railway:position": "49.4 / 35.6",
    "railway:position:exact": "49.427 / 35.606",
    "railway:ref": "Mac",
    "train": "yes",
    "uic_name": "Marchegg",
    "uic_ref": "8100466",
    "wheelchair": "yes",
    "wikimedia_commons": "Category:Bahnhof Marchegg"
  }
},
{
  "type": "node",
  "id": 32853993,
  "lat": 47.3918701,
  "lon": 11.2668145,
  "tags": {
    "ele": "964",
    "name": "Scharnitz",
    "network": "Verkehrsverbund Tirol",
    "network:short": "VVT",
    "network:wikidata": "Q1668732",
    "operator": "ÖBB-Infrastruktur AG",
    "platforms": "2",
    "public_transport": "station",
    "railway": "station",
    "railway:position": "32.5",
    "railway:position:exact": "32.491",
    "railway:ref": "Snz",
    "railway:ref:DB": "XAA",
    "train": "yes",
    "uic_name": "Scharnitz",
    "uic_ref": "8100088",
    "wikidata": "Q38177248"
  }
},
{
  "type": "node",
  "id": 32854094,
  "lat": 47.3288417,
  "lon": 11.1892094,
  "tags": {
    "addr:city": "Seefeld in Tirol",
    "addr:housenumber": "115",
    "addr:postcode": "6100",
    "addr:street": "Bahnhofplatz",
    "ele": "1182",
    "name": "Seefeld in Tirol",
    "network": "Verkehrsverbund Tirol",
    "network:short": "VVT",
    "network:wikidata": "Q1668732",
    "operator": "ÖBB-Infrastruktur AG",
    "platforms": "2",
    "public_transport": "station",
    "railway": "station",
    "railway:position": "22.4",
    "railway:position:exact": "22.427",
    "railway:ref": "Set",
    "railway:ref:DB": "XAS",
    "short_name": "Seefeld",
    "train": "yes",
    "uic_name": "Seefeld in Tirol",
    "uic_ref": "8100113",
    "wheelchair": "yes",
    "wikidata": "Q20873522",
    "wikipedia": "de:Bahnhof Seefeld in Tirol"
  }
},
{
  "type": "node",
  "id": 32854131,
  "lat": 47.3010483,
  "lon": 11.2006343,
  "tags": {
    "ele": "1120",
    "name": "Reith bei Seefeld",
    "network": "Verkehrsverbund Tirol",
    "network:short": "VVT",
    "network:wikidata": "Q1668732",
    "operator": "ÖBB-Infrastruktur AG",
    "platforms": "2",
    "public_transport": "station",
    "railway": "station",
    "railway:position": "18.8",
    "railway:position:exact": "18.835",
    "railway:ref": "Re",
    "railway:ref:DB": "XARE",
    "train": "yes",
    "uic_name": "Reith b.Seefeld",
    "uic_ref": "8100112",
    "wikidata": "Q38177050"
  }
},
{
  "type": "node",
  "id": 32854199,
  "lat": 47.2809977,
  "lon": 11.2497184,
  "tags": {
    "ele": "922",
    "name": "Hochzirl",
    "network": "Verkehrsverbund Tirol",
    "network:short": "VVT",
    "network:wikidata": "Q1668732",
    "operator": "ÖBB-Infrastruktur AG",
    "platforms": "2",
    "public_transport": "station",
    "railway": "station",
    "railway:position": "12.7",
    "railway:position:exact": "12.713",
    "railway:ref": "Hol",
    "railway:ref:DB": "XAHO",
    "train": "yes",
    "uic_name": "Hochzirl",
    "uic_ref": "8100111",
    "website:departures": "https://fahrplan.oebb.at/bin/stboard.exe/dox?isc=00111",
    "wikidata": "Q38176905"
  }
},
{
  "type": "node",
  "id": 32854316,
  "lat": 47.2614757,
  "lon": 11.3737254,
  "tags": {
    "name": "Innsbruck Hötting",
    "network": "Verkehrsverbund Tirol",
    "network:short": "VVT",
    "network:wikidata": "Q1668732",
    "operator": "ÖBB-Infrastruktur AG",
    "platforms": "2",
    "public_transport": "station",
    "railway": "station",
    "railway:position": "1.8",
    "railway:position:exact": "1.782",
    "railway:ref": "Ih",
    "railway:ref:DB": "XAIH",
    "train": "yes",
    "uic_ref": "8100110",
    "wheelchair": "limited",
    "wikidata": "Q38176748"
  }
},
{
  "type": "node",
  "id": 32854340,
  "lat": 47.2555180,
  "lon": 11.3914764,
  "tags": {
    "alt_name": "Innsbruck Westbahnhof",
    "check_date:wheelchair": "2024-09-01",
    "ele": "583",
    "name": "Innsbruck Westbf",
    "operator": "ÖBB-Infrastruktur AG",
    "platforms": "3",
    "public_transport": "station",
    "railway": "station",
    "railway:position": "1.3 / 0.0",
    "railway:position:exact": "1.325 / 0.000",
    "railway:ref": "Wt",
    "railway:ref:DB": "XAIW",
    "uic_name": "Innsbruck Westbf",
    "uic_ref": "8100109",
    "wheelchair": "no",
    "wikidata": "Q873446",
    "wikipedia": "de:Innsbruck Westbahnhof"
  }
},
{
  "type": "node",
  "id": 35526636,
  "lat": 47.0534204,
  "lon": 15.4482575,
  "tags": {
    "alt_name": "Graz Ostbahnhof-Messe",
    "name": "Graz Ostbahnhof",
    "operator": "ÖBB-Infrastruktur AG",
    "public_transport": "station",
    "railway": "station",
    "railway:ref": "Gob",
    "ref:IFOPT": "at:46:3038:1:zug",
    "uic_name": "Graz Ostbf",
    "uic_ref": "8100371",
    "wheelchair": "yes",
    "wikidata": "Q1544082"
  }
},
{
  "type": "node",
  "id": 36632331,
  "lat": 47.4489417,
  "lon": 12.3090792,
  "tags": {
    "name": "Kirchberg in Tirol",
    "operator": "ÖBB-Infrastruktur AG",
    "public_transport": "station",
    "railway": "station",
    "railway:position": "166.4",
    "railway:position:exact": "166.385",
    "railway:ref": "Kit",
    "train": "yes",
    "uic_ref": "8100057",
    "wheelchair": "no",
    "wikidata": "Q72831136"
  }
},
{
  "type": "node",
  "id": 36635240,
  "lat": 47.4542348,
  "lon": 12.3910162,
  "tags": {
    "name": "Kitzbühel",
    "operator": "ÖBB-Infrastruktur AG",
    "public_transport": "station",
    "railway": "station",
    "railway:position": "157.1",
    "railway:position:exact": "157.077",
    "railway:ref": "Kzb",
    "toilets:wheelchair": "yes",
    "uic_ref": "8100055",
    "wheelchair": "yes",
    "wikidata": "Q72833788",
    "wikipedia": "en:Kitzbühel railway station"
  }
},
{
  "type": "node",
  "id": 36635331,
  "lat": 47.5196013,
  "lon": 12.4308187,
  "tags": {
    "name": "St. Johann in Tirol",
    "operator": "ÖBB-Infrastruktur AG",
    "public_transport": "station",
    "railway": "station",
    "railway:position": "147.7",
    "railway:position:exact": "147.675",
    "railway:ref": "Jti",
    "toilets:wheelchair": "yes",
    "uic_name": "St. Johann in Tirol",
    "uic_ref": "8100054",
    "wheelchair": "yes",
    "wikidata": "Q72833891"
  }
},
{
  "type": "node",
  "id": 39440165,
  "lat": 47.8685066,
  "lon": 16.3813024,
  "tags": {
    "addr:street": "Bahnhofstraße",
    "name": "Neufeld an der Leitha",
    "operator": "GySEV",
    "public_transport": "station",
    "railway": "station",
    "railway:ref": "Nfl"
  }
},
{
  "type": "node",
  "id": 49192585,
  "lat": 47.0760986,
  "lon": 15.4367620,
  "tags": {
    "ele:müa": "464.581",
    "ele:source": "sign",
    "funicular": "yes",
    "heritage": "2",
    "heritage:operator": "bda",
    "name": "Schloßbergbahn Bergstation",
    "opening_hours": "Mo-Th,Su,PH 10:00-24:00, Fr,Sa 10:00-26:00; Apr-Sep 09:00-10:00; Dec 24 10:00-18:00; Jan 01 10:00-28:00",
    "public_transport": "station",
    "railway": "station",
    "ref:IFOPT": "at:46:5150:0:bahn",
    "ref:at:bda": "10284",
    "station": "funicular",
    "wheelchair": "yes",
    "wikidata": "Q2244890"
  }
},
{
  "type": "node",
  "id": 49192593,
  "lat": 47.0748698,
  "lon": 15.4350626,
  "tags": {
    "alt_name": "Graz Schloßbergbahn",
    "funicular": "yes",
    "loc_name": "Schloßbergbahn Talstation",
    "name": "Schloßbergbahn",
    "opening_hours": "Mo-Th,Su,PH 10:00-24:00, Fr,Sa 10:00-26:00; Apr-Sep 09:00-10:00; Dec 24 10:00-18:00; Jan 01 10:00-28:00",
    "public_transport": "station",
    "railway": "station",
    "ref:IFOPT": "at:46:4067:2:bahn",
    "station": "funicular",
    "wheelchair": "yes"
  }
},
{
  "type": "node",
  "id": 60093107,
  "lat": 48.1965445,
  "lon": 16.3362817,
  "tags": {
    "departures_board": "realtime",
    "heritage": "2",
    "heritage:operator": "bda",
    "name": "Wien Westbahnhof",
    "operator": "ÖBB-Infrastruktur AG",
    "public_transport": "station",
    "railway": "station",
    "railway:position": "0.0",
    "railway:position:exact": "0.000",
    "railway:ref": "Ws",
    "railway:ref:DB": "XAWW",
    "ref:at:bda": "40557",
    "short_name": "Wien Westbf",
    "toilets:wheelchair": "yes",
    "uic_name": "Wien Westbahnhof",
    "uic_ref": "8100003",
    "wheelchair": "yes",
    "wikidata": "Q698145",
    "wikipedia": "de:Wien Westbahnhof"
  }
},
{
  "type": "node",
  "id": 60215284,
  "lat": 48.1944138,
  "lon": 16.4067471,
  "tags": {
    "departures_board": "no",
    "name": "Schlachthausgasse",
    "network": "U-Bahn Wien",
    "network:wikidata": "Q209400",
    "operator": "Wiener Linien",
    "operator:wikidata": "Q668849",
    "platforms": "2",
    "public_transport": "station",
    "railway": "station",
    "railway:position": "9.8",
    "railway:position:exact": "9.770",
    "railway:ref": "SG",
    "station": "subway",
    "subway": "yes",
    "uic_name": "Wien Schlachthausgasse (U3)",
    "wheelchair": "yes",
    "wikidata": "Q2465757",
    "wikipedia": "de:U-Bahn-Station Schlachthausgasse"
  }
},
{
  "type": "node",
  "id": 62687115,
  "lat": 48.1851441,
  "lon": 16.4174702,
  "tags": {
    "name": "Gasometer",
    "network": "U-Bahn Wien",
    "network:wikidata": "Q209400",
    "operator": "Wiener Linien",
    "operator:wikidata": "Q668849",
    "platforms": "2",
    "public_transport": "station",
    "railway": "station",
    "railway:position": "11.3",
    "railway:position:exact": "11.316",
    "railway:ref": "AW",
    "station": "subway",
    "subway": "yes",
    "toilets:wheelchair": "yes",
    "uic_name": "Wien Gasometer (U3)",
    "wheelchair": "yes",
    "wikidata": "Q1752839",
    "wikipedia": "de:U-Bahn-Station Gasometer"
  }
},
{
  "type": "node",
  "id": 62687123,
  "lat": 48.1804386,
  "lon": 16.4120644,
  "tags": {
    "name": "Zippererstraße",
    "network": "U-Bahn Wien",
    "network:wikidata": "Q209400",
    "operator": "Wiener Linien",
    "operator:wikidata": "Q668849",
    "platforms": "2",
    "public_transport": "station",
    "railway": "station",
    "railway:position": "12.0",
    "railway:position:exact": "11.972",
    "railway:ref": "PP",
    "station": "subway",
    "subway": "yes",
    "uic_name": "Wien Zippererstraße (U3)",
    "wheelchair": "yes",
    "wikidata": "Q2465800",
    "wikipedia": "de:U-Bahn-Station Zippererstraße"
  }
},
{
  "type": "node",
  "id": 62823673,
  "lat": 48.1202259,
  "lon": 16.5642737,
  "tags": {
    "name": "Flughafen Wien",
    "name:en": "Vienna Airport",
    "network": "VOR",
    "network:wikidata": "Q2516485",
    "operator": "ÖBB-Infrastruktur AG",
    "platforms": "3",
    "public_transport": "station",
    "railway": "station",
    "railway:position": "19.3",
    "railway:position:exact": "19.300",
    "railway:ref": "Fws",
    "railway:ref:DB": "XAWIF",
    "train": "yes",
    "uic_name": "Flughafen Wien",
    "uic_ref": "8100353",
    "wheelchair": "yes"
  }
},
{
  "type": "node",
  "id": 66432827,
  "lat": 48.1745297,
  "lon": 16.3339652,
  "tags": {
    "ele": "210",
    "name": "Wien Meidling",
    "network": "VOR",
    "network:wikidata": "Q2516485",
    "operator": "ÖBB-Infrastruktur AG",
    "platforms": "8",
    "public_transport": "station",
    "railway": "station",
    "railway:position": "3.4 / 7.7",
    "railway:position:exact": "3.437 / 7.726",
    "railway:ref": "Mi",
    "railway:ref:DB": "XAWG",
    "station": "train",
    "train": "yes",
    "uic_ref": "8100514",
    "wheelchair": "yes",
    "wikidata": "Q514441",
    "wikipedia": "de:Bahnhof Wien Meidling"
  }
},
{
  "type": "node",
  "id": 67029576,
  "lat": 48.2775820,
  "lon": 16.4520703,
  "tags": {
    "name": "Leopoldau",
    "network": "U-Bahn Wien",
    "network:wikidata": "Q209400",
    "operator": "Wiener Linien",
    "operator:wikidata": "Q668849",
    "platforms": "2",
    "public_transport": "station",
    "railway": "station",
    "railway:position": "14.5",
    "railway:position:exact": "14.541",
    "railway:ref": "LU",
    "ref": "769",
    "related:wikipedia": "de:Bahnhof Wien Leopoldau",
    "station": "subway",
    "subway": "yes",
    "uic_name": "Wien Leopoldau (U1)",
    "uic_ref": "8170129",
    "wheelchair": "yes",
    "wikidata": "Q12327724",
    "wikipedia": "de:U-Bahn-Station Leopoldau"
  }
},
{
  "type": "node",
  "id": 69468988,
  "lat": 48.2020851,
  "lon": 16.3922544,
  "tags": {
    "name": "Rochusgasse",
    "network": "U-Bahn Wien",
    "network:wikidata": "Q209400",
    "operator": "Wiener Linien",
    "operator:wikidata": "Q668849",
    "platforms": "2",
    "public_transport": "station",
    "railway": "station",
    "railway:position": "8.4",
    "railway:position:exact": "8.404",
    "railway:ref": "RG",
    "station": "subway",
    "subway": "yes",
    "uic_name": "Wien Rochusgasse (U3)",
    "wheelchair": "yes",
    "wikidata": "Q1262201",
    "wikipedia": "de:U-Bahn-Station Rochusgasse"
  }
},
{
  "type": "node",
  "id": 69484904,
  "lat": 48.1747186,
  "lon": 16.4147963,
  "tags": {
    "name": "Enkplatz",
    "network": "U-Bahn Wien",
    "network:wikidata": "Q209400",
    "operator": "Wiener Linien",
    "operator:wikidata": "Q668849",
    "platforms": "2",
    "public_transport": "station",
    "railway": "station",
    "railway:position": "12.7",
    "railway:position:exact": "12.698",
    "railway:ref": "EK",
    "station": "subway",
    "subway": "yes",
    "uic_name": "Wien Enkplatz (U3)",
    "wheelchair": "yes",
    "wikidata": "Q2465685",
    "wikipedia": "de:U-Bahn-Station Enkplatz"
  }
},
{
  "type": "node",
  "id": 71796548,
  "lat": 47.7506141,
  "lon": 16.2422367,
  "tags": {
    "name": "Lanzenkirchen",
    "note": "Name changed to Lanzenkirchen on 2008-12-14",
    "old_name": "Klein Wolkersdorf",
    "operator": "ÖBB-Infrastruktur AG",
    "public_transport": "station",
    "railway": "station",
    "railway:ref": "Kw",
    "start_date": "1881-08-07",
    "train": "yes",
    "uic_ref": "8101104",
    "wheelchair": "yes"
  }
},
{
  "type": "node",
  "id": 73220148,
  "lat": 48.1860742,
  "lon": 16.0932817,
  "tags": {
    "name": "Tullnerbach-Pressbaum",
    "network": "VOR",
    "operator": "ÖBB-Infrastruktur AG",
    "public_transport": "station",
    "railway": "station",
    "railway:position": "20.0",
    "railway:position:exact": "19.970",
    "railway:ref": "Pm",
    "railway:station_category": "4",
    "uic_ref": "8101650",
    "wheelchair": "yes"
  }
},
{
  "type": "node",
  "id": 78547401,
  "lat": 47.5913871,
  "lon": 16.5470437,
  "tags": {
    "name": "Neckenmarkt-Horitschon",
    "note": "Draisine",
    "old_name": "Sopronnyék-Haracsony",
    "operator": "ÖBB-Infrastruktur AG",
    "public_transport": "stop_position",
    "railway": "station",
    "railway:ref": "Nm",
    "uic_ref": "8101268",
    "usage": "tourism"
  }
},
{
  "type": "node",
  "id": 78564114,
  "lat": 47.5856970,
  "lon": 16.4758246,
  "tags": {
    "name": "Lackenbach",
    "note": "Draisine",
    "old_name": "Lakompak",
    "operator": "ÖBB-Infrastruktur AG",
    "public_transport": "station",
    "railway": "station",
    "railway:ref": "Lch",
    "train": "yes",
    "usage": "tourism"
  }
},
{
  "type": "node",
  "id": 78564360,
  "lat": 47.5647768,
  "lon": 16.4319938,
  "tags": {
    "name": "Markt St. Martin",
    "note": "Draisine",
    "old_name": "Sopronszentmárton",
    "operator": "ÖBB-Infrastruktur AG",
    "public_transport": "station",
    "railway": "station",
    "railway:ref": "Mam",
    "train": "yes",
    "usage": "tourism"
  }
},
{
  "type": "node",
  "id": 78572877,
  "lat": 47.4962125,
  "lon": 16.5047449,
  "tags": {
    "name": "Oberpullendorf",
    "note": "Draisine",
    "old_name": "Felsőpulya",
    "operator": "ÖBB-Infrastruktur AG",
    "public_transport": "station",
    "railway": "station",
    "railway:ref": "Opu",
    "train": "yes",
    "usage": "tourism"
  }
},
{
  "type": "node",
  "id": 87015765,
  "lat": 47.2385176,
  "lon": 13.1032205,
  "tags": {
    "name": "Dorfgastein",
    "operator": "ÖBB-Infrastruktur AG",
    "public_transport": "station",
    "railway": "station",
    "railway:position": "14.3",
    "railway:position:exact": "14.313",
    "railway:ref": "Dg",
    "uic_name": "Dorfgastein",
    "uic_ref": "8100098",
    "wikidata": "Q32800339",
    "wikipedia": "de:Bahnhof Dorfgastein"
  }
},
{
  "type": "node",
  "id": 88986768,
  "lat": 48.3046907,
  "lon": 13.6268718,
  "tags": {
    "name": "Riedau",
    "operator": "ÖBB-Infrastruktur AG",
    "public_transport": "station",
    "railway": "station",
    "railway:ref": "Ri",
    "uic_ref": "8100407",
    "wheelchair": "no"
  }
},
{
  "type": "node",
  "id": 115184107,
  "lat": 48.1975587,
  "lon": 16.3998831,
  "tags": {
    "name": "Kardinal-Nagl-Platz",
    "network": "U-Bahn Wien",
    "network:wikidata": "Q209400",
    "operator": "Wiener Linien",
    "operator:wikidata": "Q668849",
    "platforms": "2",
    "public_transport": "station",
    "railway": "station",
    "railway:position": "9.2",
    "railway:position:exact": "9.159",
    "railway:ref": "KN",
    "station": "subway",
    "subway": "yes",
    "uic_name": "Wien Kardinal-Nagl-Platz (U3)",
    "wheelchair": "limited",
    "wikidata": "Q1317156",
    "wikipedia": "de:U-Bahn-Station Kardinal-Nagl-Platz"
  }
},
{
  "type": "node",
  "id": 117527786,
  "lat": 48.1697819,
  "lon": 16.4205345,
  "tags": {
    "name": "Simmering",
    "network": "U-Bahn Wien",
    "network:wikidata": "Q209400",
    "operator": "Wiener Linien",
    "operator:wikidata": "Q668849",
    "platforms": "2",
    "public_transport": "station",
    "railway": "station",
    "railway:position": "13.4",
    "railway:position:exact": "13.402",
    "railway:ref": "SA",
    "station": "subway",
    "subway": "yes",
    "toilets:wheelchair": "yes",
    "uic_name": "Wien Simmering (U3)",
    "uic_ref": "8170076",
    "wheelchair": "yes",
    "wikidata": "Q15277832",
    "wikipedia": "de:U-Bahn-Station Simmering"
  }
},
{
  "type": "node",
  "id": 129973615,
  "lat": 47.4674470,
  "lon": 12.6266025,
  "tags": {
    "name": "Hochfilzen",
    "operator": "ÖBB-Infrastruktur AG",
    "public_transport": "station",
    "railway": "station",
    "railway:position": "130.1",
    "railway:position:exact": "130.141",
    "railway:ref": "Hch",
    "uic_ref": "8100052",
    "wikidata": "Q72830709"
  }
},
{
  "type": "node",
  "id": 140069854,
  "lat": 48.2057645,
  "lon": 16.3856764,
  "tags": {
    "check_date:wheelchair": "2023-06-08",
    "name": "Landstraße",
    "network": "U-Bahn Wien",
    "network:wikidata": "Q209400",
    "operator": "Wiener Linien",
    "operator:wikidata": "Q668849",
    "platforms": "2",
    "public_transport": "station",
    "railway": "station",
    "railway:position": "7.8",
    "railway:position:exact": "7.762",
    "railway:ref": "LA",
    "station": "subway",
    "subway": "yes",
    "uic_name": "Wien Mitte-Landstraße Bf (U3)",
    "uic_ref": "8170028",
    "wheelchair": "yes",
    "wikidata": "Q15241526",
    "wikipedia": "de:U-Bahn-Station Landstraße"
  }
},
{
  "type": "node",
  "id": 158707691,
  "lat": 48.0236920,
  "lon": 14.4083266,
  "tags": {
    "name": "Garsten",
    "operator": "ÖBB-Infrastruktur AG",
    "public_transport": "stop_position",
    "railway": "station",
    "railway:ref": "Gst",
    "train": "yes",
    "uic_ref": "8100248"
  }
},
{
  "type": "node",
  "id": 158868668,
  "lat": 48.2886625,
  "lon": 14.4783408,
  "tags": {
    "name": "Lungitz",
    "operator": "ÖBB-Infrastruktur AG",
    "public_transport": "station",
    "railway": "station",
    "railway:ref": "Lu",
    "uic_name": "Lungitz/Gusen",
    "uic_ref": "8101185"
  }
},
{
  "type": "node",
  "id": 176745164,
  "lat": 47.2200500,
  "lon": 9.6392047,
  "tags": {
    "name": "Frastanz",
    "operator": "ÖBB-Infrastruktur AG",
    "platforms": "3",
    "public_transport": "station",
    "railway": "station",
    "railway:position": "51.4",
    "railway:position:exact": "51.387",
    "railway:ref": "Fa",
    "train": "yes",
    "uic_ref": "8100069",
    "wheelchair": "yes",
    "wikidata": "Q56887289"
  }
},
{
  "type": "node",
  "id": 181317489,
  "lat": 47.5516494,
  "lon": 14.0103576,
  "tags": {
    "ele": "835",
    "name": "Tauplitz",
    "operator": "ÖBB-Infrastruktur AG",
    "public_transport": "station",
    "railway": "station",
    "railway:position": "9.7",
    "railway:position:exact": "9.651",
    "railway:ref": "Ku",
    "uic_name": "Tauplitz",
    "uic_ref": "8100166",
    "wheelchair": "yes"
  }
},
{
  "type": "node",
  "id": 181317500,
  "lat": 47.5503903,
  "lon": 13.9451996,
  "tags": {
    "ele": "820",
    "name": "Bad Mitterndorf",
    "operator": "ÖBB-Infrastruktur AG",
    "public_transport": "station",
    "railway": "station",
    "railway:position": "14.6",
    "railway:position:exact": "14.585",
    "railway:ref": "Bam",
    "uic_name": "Bad Mitterndorf",
    "uic_ref": "8100165",
    "wheelchair": "yes"
  }
},
{
  "type": "node",
  "id": 181317543,
  "lat": 47.5698431,
  "lon": 13.8426875,
  "tags": {
    "ele": "768",
    "name": "Kainisch",
    "operator": "ÖBB-Infrastruktur AG",
    "public_transport": "station",
    "railway": "station",
    "railway:position": "23.2",
    "railway:position:exact": "23.166",
    "railway:ref": "Kai",
    "train": "yes",
    "uic_name": "Kainisch",
    "uic_ref": "8101025"
  }
},
{
  "type": "node",
  "id": 181317612,
  "lat": 47.5990960,
  "lon": 13.7767752,
  "tags": {
    "ele": "641",
    "name": "Bad Aussee",
    "operator": "ÖBB-Infrastruktur AG",
    "public_transport": "station",
    "railway": "station",
    "railway:position": "29.8",
    "railway:position:exact": "29.775",
    "railway:ref": "Au",
    "uic_name": "Bad Aussee",
    "uic_ref": "8100164",
    "wheelchair": "yes",
    "wikidata": "Q72823539"
  }
},
{
  "type": "node",
  "id": 181317711,
  "lat": 47.5575223,
  "lon": 13.6836457,
  "tags": {
    "ele": "514",
    "name": "Obertraun Dachsteinhöhlen",
    "operator": "ÖBB-Infrastruktur AG",
    "public_transport": "station",
    "railway": "station",
    "railway:position": "40.9",
    "railway:position:exact": "40.935",
    "railway:ref": "Oa",
    "uic_name": "Obertraun Dachsteinhöhlen",
    "uic_ref": "8100163",
    "wheelchair": "no"
  }
},
{
  "type": "node",
  "id": 181317797,
  "lat": 47.6163952,
  "lon": 13.6318704,
  "tags": {
    "name": "Steeg-Gosau",
    "operator": "ÖBB-Infrastruktur AG",
    "public_transport": "station",
    "railway": "station",
    "railway:ref": "Stg",
    "uic_name": "Steeg-Gosau",
    "uic_ref": "8100162",
    "wheelchair": "no"
  }
},
{
  "type": "node",
  "id": 181318049,
  "lat": 47.8552628,
  "lon": 13.7771341,
  "tags": {
    "name": "Traunkirchen",
    "operator": "ÖBB-Infrastruktur AG",
    "public_transport": "station",
    "railway": "station",
    "railway:ref": "Tk",
    "uic_name": "Traunkirchen",
    "uic_ref": "8100153",
    "wheelchair": "yes"
  }
},
{
  "type": "node",
  "id": 181318089,
  "lat": 47.8912986,
  "lon": 13.7582270,
  "tags": {
    "name": "Altmünster",
    "operator": "ÖBB-Infrastruktur AG",
    "public_transport": "stop_position",
    "railway": "station",
    "railway:ref": "Er",
    "train": "yes",
    "uic_name": "Altmünster am Traunsee",
    "uic_ref": "8100152",
    "wheelchair": "limited"
  }
},
{
  "type": "node",
  "id": 185525285,
  "lat": 47.4175843,
  "lon": 9.7386692,
  "tags": {
    "check_date:wheelchair": "2024-12-18",
    "name": "Dornbirn",
    "operator": "ÖBB-Infrastruktur AG",
    "public_transport": "station",
    "railway": "station",
    "railway:position": "22.2",
    "railway:position:exact": "22.233",
    "railway:ref": "Do",
    "uic_ref": "8100122",
    "wheelchair": "yes",
    "wikidata": "Q24817320",
    "wikipedia": "de:Bahnhof Dornbirn"
  }
},
{
  "type": "node",
  "id": 206095800,
  "lat": 47.1802980,
  "lon": 9.7712351,
  "tags": {
    "alt_name:uk": "Лудеш",
    "name": "Ludesch",
    "name:de": "Ludesch",
    "name:uk": "Людеш",
    "name:zh": "卢德施",
    "old_name": "Ludesch-Thüringen",
    "operator": "ÖBB-Infrastruktur AG",
    "public_transport": "station",
    "railway": "station",
    "railway:position": "63.3",
    "railway:position:exact": "63.327",
    "railway:ref": "Lt",
    "train": "yes",
    "uic_ref": "8100066",
    "wheelchair": "no",
    "wikidata": "Q92470784"
  }
},
{
  "type": "node",
  "id": 206114734,
  "lat": 47.9980061,
  "lon": 13.4894460,
  "tags": {
    "name": "Vöcklamarkt",
    "operator": "ÖBB-Infrastruktur AG",
    "public_transport": "station",
    "railway": "station",
    "railway:ref": "Vm",
    "station": "train",
    "train": "yes",
    "uic_ref": "8100508",
    "wheelchair": "yes"
  }
},
{
  "type": "node",
  "id": 215682892,
  "lat": 48.2902408,
  "lon": 14.2918619,
  "tags": {
    "name": "Linz Hauptbahnhof",
    "name:en": "Linz main station",
    "operator": "ÖBB-Infrastruktur AG",
    "public_transport": "station",
    "railway": "station",
    "railway:name:DB": "Linz Hbf",
    "railway:position": "188.4 / 0.0",
    "railway:position:exact": "188.440 / 0.000",
    "railway:ref": "Lz",
    "railway:ref:DB": "XAL",
    "short_name": "Linz Hbf",
    "toilets:wheelchair": "yes",
    "uic_name": "Linz Hbf",
    "uic_ref": "8100013",
    "wheelchair": "yes",
    "wikidata": "Q763157",
    "wikipedia": "de:Linz Hauptbahnhof"
  }
},
{
  "type": "node",
  "id": 240129157,
  "lat": 47.0382269,
  "lon": 10.6084040,
  "tags": {
    "ele": "1424",
    "name": "Serfaus Kirche",
    "operator": "Seilbahn Komperdell GmbH",
    "platforms": "1",
    "public_transport": "stop_position",
    "railway": "station",
    "station": "subway",
    "subway": "yes",
    "train": "no",
    "uic_name": "Serfaus Kirche (U)",
    "wheelchair": "yes"
  }
},
{
  "type": "node",
  "id": 240129222,
  "lat": 47.0386713,
  "lon": 10.6050791,
  "tags": {
    "ele": "1421",
    "layer": "-1",
    "name": "Serfaus Zentrum",
    "operator": "Seilbahn Komperdell GmbH",
    "platforms": "1",
    "public_transport": "stop_position",
    "railway": "station",
    "station": "subway",
    "subway": "yes",
    "train": "no",
    "uic_name": "Serfaus Zentrum (U)",
    "wheelchair": "yes"
  }
},
{
  "type": "node",
  "id": 240129620,
  "lat": 47.0405818,
  "lon": 10.5976470,
  "tags": {
    "ele": "1441",
    "name": "Serfaus Seilbahn",
    "operator": "Seilbahn Komperdell GmbH",
    "platforms": "1",
    "public_transport": "stop_position",
    "railway": "station",
    "station": "subway",
    "subway": "yes",
    "train": "no",
    "uic_name": "Serfaus Seilbahn (U)",
    "wheelchair": "yes"
  }
},
{
  "type": "node",
  "id": 245788989,
  "lat": 47.1271389,
  "lon": 11.4528221,
  "tags": {
    "name": "Matrei am Brenner",
    "operator": "ÖBB-Infrastruktur AG",
    "railway": "station",
    "railway:position": "93.3",
    "railway:position:exact": "93.281",
    "railway:ref": "Mei",
    "railway:ref:DB": "XAM",
    "uic_name": "Matrei am Brenner",
    "uic_ref": "8100106",
    "wheelchair": "yes",
    "wikidata": "Q18283757"
  }
},
{
  "type": "node",
  "id": 245789006,
  "lat": 47.0894547,
  "lon": 11.4698741,
  "tags": {
    "alt_name": "Steinach in Tirol",
    "name": "Steinach am Brenner",
    "note": "offizieller uic_name weicht von Stationsnamen ab, bitte NICHT ändern!",
    "official_name": "Steinach in Tirol",
    "old_name": "Steinach in Tirol",
    "operator": "ÖBB-Infrastruktur AG",
    "public_transport": "station",
    "railway": "station",
    "railway:position": "97.9",
    "railway:position:exact": "97.884",
    "railway:ref": "Sti",
    "railway:ref:DB": "XAST",
    "uic_name": "Steinach in Tirol",
    "uic_ref": "8100107",
    "wheelchair": "yes",
    "wikidata": "Q23198763"
  }
},
{
  "type": "node",
  "id": 247482878,
  "lat": 47.2658927,
  "lon": 11.2298392,
  "tags": {
    "ele": "597",
    "name": "Zirl",
    "network": "Verkehrsverbund Tirol",
    "network:short": "VVT",
    "network:wikidata": "Q1668732",
    "operator": "ÖBB-Infrastruktur AG",
    "platforms": "3",
    "public_transport": "station",
    "railway": "station",
    "railway:position": "14.2",
    "railway:position:exact": "14.247",
    "railway:ref": "Zl",
    "railway:ref:DB": "XAZL",
    "train": "yes",
    "wheelchair": "no",
    "wikidata": "Q72834002"
  }
},
{
  "type": "node",
  "id": 248059805,
  "lat": 47.5011743,
  "lon": 15.4483750,
  "tags": {
    "alt_name": "Kindberg Bahnhof",
    "name": "Kindberg",
    "operator": "ÖBB-Infrastruktur AG",
    "public_transport": "station",
    "railway": "station",
    "railway:ref": "Ki",
    "ref:IFOPT": "at:46:6313:1:zug",
    "toilets:wheelchair": "no",
    "uic_ref": "8100030",
    "wheelchair": "no"
  }
},
{
  "type": "node",
  "id": 248061440,
  "lat": 47.6079138,
  "lon": 15.6772482,
  "tags": {
    "name": "Mürzzuschlag",
    "operator": "ÖBB-Infrastruktur AG",
    "public_transport": "station",
    "railway": "station",
    "railway:ref": "Mz",
    "ref:IFOPT": "at:46:7426:1:zug",
    "uic_name": "Mürzzuschlag",
    "uic_ref": "8100029",
    "wheelchair": "yes",
    "wikidata": "Q801226",
    "wikipedia": "de:Bahnhof Mürzzuschlag"
  }
},
{
  "type": "node",
  "id": 248064880,
  "lat": 47.6395943,
  "lon": 15.8308831,
  "tags": {
    "name": "Semmering",
    "operator": "ÖBB-Infrastruktur AG",
    "public_transport": "station",
    "railway": "station",
    "railway:ref": "Sem",
    "uic_name": "Semmering",
    "uic_ref": "8100028",
    "wheelchair": "yes"
  }
},
{
  "type": "node",
  "id": 251337936,
  "lat": 47.1910888,
  "lon": 12.6832794,
  "tags": {
    "name": "Gletscher Shuttle",
    "public_transport": "station",
    "railway": "station",
    "station": "funicular",
    "train": "yes"
  }
},
{
  "type": "node",
  "id": 251337937,
  "lat": 47.1891315,
  "lon": 12.6847776,
  "tags": {
    "name": "Gletscher Shuttle",
    "public_transport": "station",
    "railway": "station",
    "station": "funicular",
    "train": "yes"
  }
},
{
  "type": "node",
  "id": 253330602,
  "lat": 48.7642168,
  "lon": 14.9845125,
  "tags": {
    "alt_name": "Gmünd N.Ö.",
    "ele": "500",
    "name": "Gmünd NÖ",
    "operator": "ÖBB-Infrastruktur AG",
    "public_transport": "station",
    "railway": "station",
    "railway:ref": "Gm",
    "train": "yes",
    "uic_name": "Gmünd NÖ",
    "uic_ref": "8100129",
    "wheelchair": "yes"
  }
},
{
  "type": "node",
  "id": 253636715,
  "lat": 46.6091891,
  "lon": 13.8405917,
  "tags": {
    "ele:local": "504.32",
    "name": "Villach Westbahnhof",
    "operator": "ÖBB-Infrastruktur AG",
    "public_transport": "station",
    "public_transport_tickets": "yes",
    "railway": "station",
    "railway:position": "379.1",
    "railway:position:exact": "379.139",
    "railway:ref": "Vf",
    "short_name": "Villach Westbf",
    "source:ele": "commons.wikimedia.org/wiki/File:Villach_Westbahnhof_-_detail.jpg",
    "uic_ref": "8100148"
  }
},
{
  "type": "node",
  "id": 254073098,
  "lat": 47.8916965,
  "lon": 16.9050407,
  "tags": {
    "name": "Gols",
    "name:hu": "Gálos",
    "operator": "NSB",
    "public_transport": "station",
    "railway": "station",
    "railway:ref": "Go",
    "wheelchair": "yes"
  }
},
{
  "type": "node",
  "id": 256074989,
  "lat": 47.2927877,
  "lon": 12.9468091,
  "tags": {
    "name": "Taxenbach-Rauris",
    "operator": "ÖBB-Infrastruktur AG",
    "railway": "station",
    "railway:position": "84.3",
    "railway:position:exact": "84.328",
    "railway:ref": "Ta",
    "uic_name": "Taxenbach-Rauris",
    "uic_ref": "8100046",
    "wheelchair": "yes"
  }
},
{
  "type": "node",
  "id": 264159175,
  "lat": 47.5294472,
  "lon": 9.7424558,
  "tags": {
    "name": "Lochau-Hörbranz",
    "operator": "ÖBB-Infrastruktur AG",
    "public_transport": "station",
    "railway": "station",
    "railway:position": "6.7",
    "railway:position:exact": "6.716",
    "railway:ref": "Lc",
    "railway:ref:DB": "XALH",
    "uic_name": "Lochau-Hörbranz",
    "uic_ref": "8100124",
    "wheelchair": "yes",
    "wikidata": "Q56887360"
  }
},
{
  "type": "node",
  "id": 265607608,
  "lat": 48.0384285,
  "lon": 14.4234498,
  "tags": {
    "name": "Steyr",
    "operator": "ÖBB-Infrastruktur AG",
    "public_transport": "station",
    "railway": "station",
    "railway:ref": "Stb",
    "uic_name": "Steyr",
    "uic_ref": "8100010"
  }
},
{
  "type": "node",
  "id": 266161366,
  "lat": 48.0494028,
  "lon": 14.3568264,
  "tags": {
    "name": "Pergern",
    "note": "Steyrtal-Museumsbahn",
    "operator": "ÖGEG",
    "railway": "station",
    "railway:position": "6.7"
  }
},
{
  "type": "node",
  "id": 266639438,
  "lat": 48.1362442,
  "lon": 13.6340724,
  "tags": {
    "name": "Kohlebahnhof Scheiben",
    "railway": "station"
  }
},
{
  "type": "node",
  "id": 266916718,
  "lat": 47.4731990,
  "lon": 15.3731231,
  "tags": {
    "alt_name": "Sankt Marein im Mürztal Marein-St Lorenzen Bahnhof",
    "name": "Marein-St. Lorenzen",
    "operator": "ÖBB-Infrastruktur AG",
    "public_transport": "station",
    "railway": "station",
    "railway:ref": "Mas",
    "ref:IFOPT": "at:46:6155:1:zug",
    "train": "yes",
    "uic_ref": "8101243"
  }
},
{
  "type": "node",
  "id": 267993504,
  "lat": 48.1789148,
  "lon": 14.5219995,
  "tags": {
    "alt_name": "Sankt Valentin",
    "name": "St. Valentin",
    "operator": "ÖBB-Infrastruktur AG",
    "public_transport": "station",
    "railway": "station",
    "railway:position": "164.1",
    "railway:position:exact": "164.100",
    "railway:ref": "Sv",
    "uic_name": "St. Valentin",
    "uic_ref": "8100009",
    "wikipedia": "de:Bahnhof Sankt Valentin"
  }
},
{
  "type": "node",
  "id": 270185745,
  "lat": 48.3994120,
  "lon": 15.5720601,
  "tags": {
    "name": "Stein-Mautern",
    "operator": "NÖVOG",
    "railway": "station",
    "uic_name": "Stein-Mautern",
    "uic_ref": "8101549"
  }
},
{
  "type": "node",
  "id": 271319228,
  "lat": 48.1564625,
  "lon": 14.0173783,
  "tags": {
    "name": "Wels Lokalbahn",
    "operator": "ÖBB-Infrastruktur AG",
    "public_transport": "station",
    "railway": "station",
    "railway:position": "1.5",
    "railway:position:exact": "1.582",
    "railway:ref": "Wl",
    "train": "yes",
    "uic_name": "Wels Lokalbahn",
    "uic_ref": "8101754"
  }
},
{
  "type": "node",
  "id": 271340790,
  "lat": 47.0993691,
  "lon": 15.7088704,
  "tags": {
    "contact:phone": "+43 3112 2230 39",
    "name": "Gleisdorf",
    "operator": "ÖBB-Infrastruktur AG",
    "public_transport": "station",
    "railway": "station",
    "railway:ref": "Gld",
    "ref:IFOPT": "at:46:28:1:zug",
    "train": "yes",
    "uic_ref": "8100195",
    "wheelchair": "limited"
  }
},
{
  "type": "node",
  "id": 271406315,
  "lat": 47.0789224,
  "lon": 15.5884382,
  "tags": {
    "name": "Laßnitzhöhe",
    "operator": "ÖBB-Infrastruktur AG",
    "public_transport": "station",
    "railway": "station",
    "railway:ref": "Lah",
    "ref:IFOPT": "at:46:1761:1:zug",
    "train": "yes",
    "uic_name": "Laßnitzhöhe",
    "uic_ref": "8100194"
  }
},
{
  "type": "node",
  "id": 275808921,
  "lat": 47.2710038,
  "lon": 11.3953964,
  "tags": {
    "changing_table": "yes",
    "changing_table:location": "wheelchair_toilet",
    "ele": "569",
    "funicular": "yes",
    "level": "-1",
    "name": "Congress",
    "operator": "IVB",
    "public_transport": "stop_position",
    "railway": "station",
    "station": "funicular",
    "toilets": "yes",
    "toilets:wheelchair": "yes",
    "uic_name": "Innsbruck Congress (HBB)",
    "wheelchair": "yes",
    "wikidata": "Q116619718"
  }
},
{
  "type": "node",
  "id": 275810487,
  "lat": 47.2862294,
  "lon": 11.4001718,
  "tags": {
    "ele": "857",
    "funicular": "yes",
    "level": "-1",
    "name": "Hungerburg",
    "operator": "IVB",
    "public_transport": "stop_position",
    "railway": "station",
    "station": "funicular",
    "uic_name": "Innsbruck Hungerburg (HBB)",
    "wheelchair": "yes",
    "wikidata": "Q116619720"
  }
},
{
  "type": "node",
  "id": 276624996,
  "lat": 48.3378225,
  "lon": 14.1771405,
  "tags": {
    "name": "Ottensheim",
    "operator": "ÖBB-Infrastruktur AG",
    "public_transport": "stop_position",
    "railway": "station",
    "railway:ref": "Ott",
    "train": "yes",
    "uic_ref": "8100513"
  }
},
{
  "type": "node",
  "id": 276639628,
  "lat": 47.2719584,
  "lon": 9.6375993,
  "tags": {
    "name": "Rankweil",
    "name:de": "Rankweil",
    "name:uk": "Ранквайль",
    "name:zh": "兰克韦尔",
    "operator": "ÖBB-Infrastruktur AG",
    "public_transport": "station",
    "railway": "station",
    "railway:position": "42.5",
    "railway:position:exact": "42.518",
    "railway:ref": "Rk",
    "toilets:wheelchair": "yes",
    "uic_ref": "8100119",
    "wheelchair": "yes",
    "wikidata": "Q56887319"
  }
},
{
  "type": "node",
  "id": 276933896,
  "lat": 47.9428524,
  "lon": 16.8443241,
  "tags": {
    "name": "Neusiedl am See Bad",
    "name:hu": "Nezsider Fürdő",
    "note": "bitte unterschiedliche Nomenklatur name/uic_name belassen - stimmt so!",
    "operator": "NSB",
    "public_transport": "station",
    "railway": "station",
    "railway:ref": "Bns",
    "uic_name": "Bad Neusiedl am See",
    "uic_ref": "8100453"
  }
},
{
  "type": "node",
  "id": 277694976,
  "lat": 47.4095595,
  "lon": 10.9135899,
  "tags": {
    "ele": "974",
    "name": "Ehrwald-Zugspitzbahn",
    "network": "Verkehrsverbund Tirol",
    "network:short": "VVT",
    "network:wikidata": "Q1668732",
    "operator": "ÖBB-Infrastruktur AG",
    "platforms": "2",
    "public_transport": "station",
    "railway": "station",
    "railway:position": "23.3",
    "railway:position:exact": "23.300",
    "railway:ref": "Eh",
    "railway:ref:DB": "XAEZ",
    "train": "yes",
    "wheelchair": "yes",
    "wikidata": "Q110440798"
  }
},
{
  "type": "node",
  "id": 277756229,
  "lat": 47.8747587,
  "lon": 16.9468505,
  "tags": {
    "name": "Mönchhof-Halbturn",
    "name:hu": "Barátudvar-Féltorony",
    "operator": "NSB",
    "public_transport": "station",
    "railway": "station",
    "railway:ref": "Mhf"
  }
},
{
  "type": "node",
  "id": 278326216,
  "lat": 48.5573450,
  "lon": 14.4488515,
  "tags": {
    "ele": "666",
    "name": "Summerau",
    "operator": "ÖBB-Infrastruktur AG",
    "public_transport": "stop_position",
    "railway": "station",
    "railway:position": "55.9",
    "railway:position:exact": "55.905",
    "railway:ref": "Smr",
    "train": "yes",
    "uic_ref": "8100316"
  }
},
{
  "type": "node",
  "id": 279108098,
  "lat": 47.3366509,
  "lon": 9.6366867,
  "tags": {
    "name": "Götzis",
    "name:de": "Götzis",
    "name:hu": "Götzis",
    "name:ru": "Гётцис",
    "name:uk": "Ґьотціс",
    "name:zh": "格齐斯",
    "operator": "ÖBB-Infrastruktur AG",
    "public_transport": "station",
    "railway": "station",
    "railway:position": "34.8",
    "railway:position:exact": "34.760",
    "railway:ref": "Got",
    "uic_ref": "8100120",
    "wheelchair": "yes",
    "wikidata": "Q56887327"
  }
},
{
  "type": "node",
  "id": 279162096,
  "lat": 48.1200588,
  "lon": 15.5411759,
  "tags": {
    "name": "Klangen",
    "public_transport": "stop_position",
    "railway": "station",
    "train": "yes",
    "uic_name": "Klangen",
    "uic_ref": "8101056"
  }
},
{
  "type": "node",
  "id": 279162153,
  "lat": 48.0965812,
  "lon": 15.5076006,
  "tags": {
    "name": "Hofstetten-Grünau",
    "public_transport": "stop_position",
    "railway": "station",
    "train": "yes",
    "uic_name": "Hofstetten-Grünau",
    "uic_ref": "8100940"
  }
},
{
  "type": "node",
  "id": 279162233,
  "lat": 48.0682021,
  "lon": 15.4661226,
  "tags": {
    "name": "Rabenstein",
    "operator": "NÖVOG",
    "public_transport": "stop_position",
    "railway": "station",
    "railway:ref": "Rab",
    "train": "yes",
    "uic_name": "Rabenstein/Pielach",
    "uic_ref": "8101423",
    "wheelchair": "yes"
  }
},
{
  "type": "node",
  "id": 279345055,
  "lat": 47.7394221,
  "lon": 13.4398094,
  "tags": {
    "ele": "542",
    "name": "St. Wolfgang Schafbergbf",
    "operator": "SKGB",
    "public_transport": "station",
    "railway": "station",
    "railway:position": "0.0",
    "railway:ref": "Sws"
  }
},
{
  "type": "node",
  "id": 279345281,
  "lat": 47.7698606,
  "lon": 13.4221474,
  "tags": {
    "ele": "1363",
    "name": "Schafbergalm",
    "operator": "SKGB",
    "public_transport": "station",
    "railway": "station",
    "railway:position": "4.2",
    "railway:ref": "Sa",
    "train": "yes"
  }
},
{
  "type": "node",
  "id": 279345342,
  "lat": 47.7751286,
  "lon": 13.4339947,
  "tags": {
    "ele": "1732",
    "name": "Schafbergspitze",
    "operator": "SKGB",
    "public_transport": "station",
    "railway": "station",
    "railway:position": "5.9",
    "railway:ref": "Sbg",
    "train": "yes",
    "wikidata": "Q871828",
    "wikimedia_commons": "Category:Bahnhof Schafbergspitze",
    "wikipedia": "de:Schafbergbahn",
    "wikipedia:en": "en:Schafberg Railway"
  }
},
{
  "type": "node",
  "id": 279717552,
  "lat": 46.7799189,
  "lon": 15.5473459,
  "tags": {
    "alt_name": "Leibnitz Bahnhof",
    "name": "Leibnitz",
    "operator": "ÖBB-Infrastruktur AG",
    "public_transport": "station",
    "railway": "station",
    "railway:ref": "Lei",
    "ref:IFOPT": "at:46:1827:1:zug",
    "uic_ref": "8100035"
  }
},
{
  "type": "node",
  "id": 280991073,
  "lat": 48.0242644,
  "lon": 15.4327817,
  "tags": {
    "name": "Kirchberg an der Pielach",
    "operator": "NÖVOG",
    "public_transport": "station",
    "railway": "station",
    "train": "yes",
    "uic_name": "Kirchberg an der Pielach",
    "uic_ref": "8100289",
    "wheelchair": "yes"
  }
},
{
  "type": "node",
  "id": 280995782,
  "lat": 47.9951836,
  "lon": 15.3539753,
  "tags": {
    "name": "Schwarzenbach an der Pielach",
    "public_transport": "stop_position",
    "railway": "station",
    "ref": "2",
    "train": "yes",
    "uic_name": "Schwarzenbach an der Pielach",
    "uic_ref": "8101632"
  }
},
{
  "type": "node",
  "id": 280996040,
  "lat": 47.9820137,
  "lon": 15.3221449,
  "tags": {
    "name": "Frankenfels",
    "public_transport": "stop_position",
    "railway": "station",
    "train": "yes",
    "uic_ref": "8100802"
  }
},
{
  "type": "node",
  "id": 280996488,
  "lat": 47.9512312,
  "lon": 15.2751506,
  "tags": {
    "name": "Winterbach",
    "public_transport": "station",
    "railway": "station",
    "train": "yes",
    "uic_name": "Winterbach NÖ",
    "uic_ref": "8100358"
  }
},
{
  "type": "node",
  "id": 280996772,
  "lat": 47.8883387,
  "lon": 15.2819453,
  "tags": {
    "name": "Gösing",
    "public_transport": "station",
    "railway": "station",
    "train": "yes",
    "uic_name": "Gösing an der Mariazeller Bahn",
    "uic_ref": "8100252"
  }
},
{
  "type": "node",
  "id": 280996975,
  "lat": 47.8652584,
  "lon": 15.3106975,
  "tags": {
    "name": "Annaberg-Reith",
    "public_transport": "station",
    "railway": "station",
    "train": "yes",
    "uic_name": "Annaberg NÖ",
    "uic_ref": "8100212"
  }
},
{
  "type": "node",
  "id": 280997425,
  "lat": 47.8131203,
  "lon": 15.2968423,
  "tags": {
    "alt_name": "Mitterbach bei Mariazell Bahnhof",
    "ele": "800.76",
    "name": "Mitterbach am Erlaufsee",
    "operator": "NÖVOG",
    "public_transport": "station",
    "railway": "station",
    "railway:ref": "Mit",
    "ref:IFOPT": "at:46:7521:1:zug",
    "train": "yes",
    "uic_name": "Mitterbach/Erlaufsee",
    "uic_ref": "8100479"
  }
},
{
  "type": "node",
  "id": 281519668,
  "lat": 47.4570856,
  "lon": 9.7411198,
  "tags": {
    "name": "Wolfurt",
    "operator": "ÖBB-Infrastruktur AG",
    "platforms": "2",
    "public_transport": "station",
    "railway": "station",
    "railway:position": "17.0",
    "railway:position:exact": "16.980",
    "railway:ref": "Wo",
    "railway:ref:DB": "XAWT",
    "uic_ref": "8100389",
    "wheelchair": "yes",
    "wikidata": "Q56887352"
  }
},
{
  "type": "node",
  "id": 282294550,
  "lat": 48.3125132,
  "lon": 14.2224349,
  "tags": {
    "bus": "yes",
    "name": "Puchenau West",
    "operator": "ÖBB-Infrastruktur AG",
    "public_transport": "station",
    "railway": "station",
    "railway:ref": "Puw",
    "train": "yes",
    "uic_ref": "8101409",
    "wheelchair": "yes"
  }
},
{
  "type": "node",
  "id": 282298795,
  "lat": 48.3600564,
  "lon": 14.1376726,
  "tags": {
    "name": "Rottenegg",
    "operator": "ÖBB-Infrastruktur AG",
    "public_transport": "stop_position",
    "railway": "station",
    "railway:ref": "Rog",
    "train": "yes",
    "uic_ref": "8100476"
  }
},
{
  "type": "node",
  "id": 282329892,
  "lat": 48.4419697,
  "lon": 14.0515123,
  "tags": {
    "name": "Neuhaus-Niederwaldkirchen",
    "operator": "ÖBB-Infrastruktur AG",
    "public_transport": "station",
    "railway": "station",
    "railway:ref": "Nen",
    "train": "yes",
    "uic_name": "Neuhaus-Niederwaldkirchen",
    "uic_ref": "8101282"
  }
},
{
  "type": "node",
  "id": 282332919,
  "lat": 48.4838699,
  "lon": 14.0051139,
  "tags": {
    "name": "Neufelden",
    "operator": "ÖBB-Infrastruktur AG",
    "public_transport": "stop_position",
    "railway": "station",
    "railway:ref": "Nef",
    "ref": "2",
    "train": "yes",
    "uic_ref": "8100430"
  }
},
{
  "type": "node",
  "id": 286389462,
  "lat": 47.2557573,
  "lon": 11.3213632,
  "tags": {
    "ele": "586",
    "name": "Völs",
    "network": "Verkehrsverbund Tirol",
    "network:short": "VVT",
    "network:wikidata": "Q1668732",
    "operator": "ÖBB-Infrastruktur AG",
    "platforms": "2",
    "public_transport": "station",
    "railway": "station",
    "railway:position": "6.9",
    "railway:position:exact": "6.910",
    "railway:ref": "Vl",
    "railway:ref:DB": "XAVL",
    "train": "yes",
    "uic_ref": "8101728",
    "wheelchair": "no",
    "wikidata": "Q72833970"
  }
},
{
  "type": "node",
  "id": 286392419,
  "lat": 47.3006640,
  "lon": 11.0786465,
  "tags": {
    "ele": "623",
    "name": "Telfs-Pfaffenhofen",
    "network": "Verkehrsverbund Tirol",
    "network:short": "VVT",
    "network:wikidata": "Q1668732",
    "operator": "ÖBB-Infrastruktur AG",
    "platforms": "3",
    "public_transport": "station",
    "railway": "station",
    "railway:position": "26.8",
    "railway:position:exact": "26.800",
    "railway:ref": "Ts",
    "railway:ref:DB": "XATP",
    "train": "yes",
    "uic_name": "Telfs-Pfaffenhofen",
    "uic_ref": "8100060",
    "wheelchair": "yes",
    "wikidata": "Q72833913"
  }
},
{
  "type": "node",
  "id": 286537363,
  "lat": 47.0099101,
  "lon": 15.2142649,
  "tags": {
    "alt_name": "Krottendorf bei Ligist Krottendorf-Ligist Bahnhof",
    "name": "Krottendorf-Ligist",
    "operator": "ÖBB-Infrastruktur AG",
    "platforms": "2",
    "public_transport": "station",
    "railway": "station",
    "railway:position": "27.3",
    "railway:position:exact": "27.347",
    "railway:ref": "Kro",
    "ref:IFOPT": "at:46:1282:1:zug",
    "uic_name": "Krottendorf-Ligist",
    "uic_ref": "8101053"
  }
},
{
  "type": "node",
  "id": 287439202,
  "lat": 46.9493077,
  "lon": 15.8967035,
  "tags": {
    "alt_name": "Feldbach Landesbahnhof",
    "name": "Feldbach Landesbahn",
    "operator": "StB",
    "public_transport": "stop_position",
    "railway": "station",
    "railway:ref": "Flb",
    "ref:IFOPT": "at:46:331:1:zug",
    "train": "yes",
    "uic_name": "Feldbach/Raab Landesbahn",
    "uic_ref": "8100793"
  }
},
{
  "type": "node",
  "id": 288519081,
  "lat": 47.8496331,
  "lon": 16.2966778,
  "tags": {
    "name": "Obereggendorf",
    "operator": "ÖBB-Infrastruktur AG",
    "public_transport": "station",
    "railway": "station",
    "railway:position": "43.8",
    "railway:position:exact": "43.816",
    "railway:ref": "Ed",
    "uic_name": "Obereggendorf",
    "uic_ref": "8100439"
  }
},
{
  "type": "node",
  "id": 293865469,
  "lat": 48.3984332,
  "lon": 15.4731422,
  "tags": {
    "name": "Weißenkirchen i.d. Wachau",
    "note": "Schreibweise lt. ÖBB-Verzeichnis",
    "railway": "station",
    "uic_name": "Weißenkirchen in der Wachau",
    "uic_ref": "8100345"
  }
},
{
  "type": "node",
  "id": 295144908,
  "lat": 47.2148798,
  "lon": 15.6301275,
  "tags": {
    "alt_name": "Weiz Bahnhof",
    "name": "Weiz Bahnhof",
    "old_name": "Weiz",
    "operator": "STLB",
    "public_transport": "stop_position",
    "railway": "station",
    "railway:ref": "Wez",
    "ref:IFOPT": "at:46:46:1:zug",
    "train": "yes",
    "uic_name": "Weiz Bahnhof",
    "uic_ref": "8101813"
  }
},
{
  "type": "node",
  "id": 295149883,
  "lat": 47.3529562,
  "lon": 15.6981653,
  "tags": {
    "alt_name": "Birkfeld Bahnhof",
    "ele": "574",
    "name": "Birkfeld",
    "operator": "Feistritztalbahn Betriebsgesellschaft",
    "public_transport": "station",
    "railway": "station",
    "ref:IFOPT": "at:46:5182:1:zug"
  }
},
{
  "type": "node",
  "id": 295254828,
  "lat": 47.2610397,
  "lon": 15.7144010,
  "tags": {
    "alt_name": "Oberfeistritz Bahnhof",
    "ele": "461",
    "name": "Oberfeistritz",
    "operator": "STLB",
    "railway": "station",
    "ref:IFOPT": "at:46:7959:1:zug"
  }
},
{
  "type": "node",
  "id": 299400312,
  "lat": 47.3059545,
  "lon": 14.9454861,
  "tags": {
    "name": "Kraubath",
    "operator": "ÖBB-Infrastruktur AG",
    "public_transport": "station",
    "railway": "station",
    "railway:ref": "Kra",
    "uic_ref": "8101076"
  }
},
{
  "type": "node",
  "id": 300930229,
  "lat": 46.6994737,
  "lon": 15.9933746,
  "tags": {
    "alt_name": "Bad Radkersburg Bahnhof",
    "ele": "209",
    "name": "Bad Radkersburg",
    "operator": "ÖBB-Infrastruktur AG",
    "public_transport": "station",
    "railway": "station",
    "railway:position": "30.7",
    "railway:ref": "Ra",
    "ref:IFOPT": "at:46:1891:1:zug",
    "train": "yes",
    "uic_name": "Bad Radkersburg"
  }
},
{
  "type": "node",
  "id": 300930357,
  "lat": 46.7237963,
  "lon": 15.9489689,
  "tags": {
    "alt_name": "Halbenrain Bahnhof",
    "name": "Halbenrain",
    "operator": "ÖBB-Infrastruktur AG",
    "public_transport": "stop_position",
    "railway": "station",
    "railway:ref": "Hal",
    "ref": "1",
    "ref:IFOPT": "at:46:1757:1:zug",
    "train": "yes"
  }
},
{
  "type": "node",
  "id": 301327015,
  "lat": 48.8647097,
  "lon": 15.1174699,
  "tags": {
    "name": "Heidenreichstein",
    "public_transport": "station",
    "railway": "station",
    "train": "yes",
    "wikidata": "Q111171449"
  }
},
{
  "type": "node",
  "id": 302097253,
  "lat": 47.8130618,
  "lon": 13.0458530,
  "tags": {
    "addr:city": "Salzburg",
    "addr:housenumber": "1",
    "addr:postcode": "5020",
    "addr:street": "Südtiroler Platz",
    "name": "Salzburg Hauptbahnhof",
    "operator": "ÖBB-Infrastruktur AG",
    "public_transport": "station",
    "railway": "station",
    "railway:name:DB": "Salzburg Hbf",
    "railway:ref": "Sb",
    "railway:ref:DB": "XASB",
    "short_name": "Salzburg Hbf",
    "toilets": "yes",
    "toilets:access": "yes",
    "toilets:wheelchair": "yes",
    "uic_name": "Salzburg Hbf",
    "uic_ref": "8100002",
    "wheelchair": "yes",
    "wikidata": "Q694694",
    "wikipedia": "de:Salzburg Hauptbahnhof"
  }
},
{
  "type": "node",
  "id": 302314715,
  "lat": 48.0535496,
  "lon": 13.7672425,
  "tags": {
    "name": "Schwanenstadt",
    "operator": "ÖBB-Infrastruktur AG",
    "public_transport": "station",
    "railway": "station",
    "railway:ref": "Sas",
    "uic_name": "Schwanenstadt",
    "uic_ref": "8100016",
    "wheelchair": "yes"
  }
},
{
  "type": "node",
  "id": 302347196,
  "lat": 47.1900570,
  "lon": 14.7499716,
  "tags": {
    "ele": "670",
    "name": "Zeltweg",
    "operator": "ÖBB-Infrastruktur AG",
    "platforms": "3",
    "public_transport": "station",
    "railway": "station",
    "railway:position": "232.4 / 0.0",
    "railway:position:exact": "232.351 / 0.000",
    "railway:ref": "Zg",
    "uic_ref": "8100518",
    "wheelchair": "yes"
  }
},
{
  "type": "node",
  "id": 302464587,
  "lat": 47.1966494,
  "lon": 14.5892831,
  "tags": {
    "name": "Thalheim-Pöls",
    "operator": "ÖBB-Infrastruktur AG",
    "railway": "station",
    "railway:ref": "Tel",
    "uic_ref": "8101678"
  }
},
{
  "type": "node",
  "id": 302467551,
  "lat": 47.1749706,
  "lon": 14.6626045,
  "tags": {
    "name": "Judenburg",
    "operator": "ÖBB-Infrastruktur AG",
    "public_transport": "station",
    "railway": "station",
    "railway:ref": "Jg",
    "uic_ref": "8100073"
  }
},
{
  "type": "node",
  "id": 303394583,
  "lat": 46.6361990,
  "lon": 14.1463439,
  "tags": {
    "name": "Pörtschach am Wörthersee",
    "operator": "ÖBB-Infrastruktur AG",
    "public_transport": "station",
    "railway": "station",
    "railway:ref": "Pow",
    "uic_name": "Pörtschach/Wörther See",
    "uic_ref": "8100080",
    "wheelchair": "yes"
  }
},
{
  "type": "node",
  "id": 304177046,
  "lat": 47.7828211,
  "lon": 16.9279393,
  "tags": {
    "name": "St. Andrä am Zicksee",
    "name:hu": "Mosonszentandrás",
    "operator": "NSB",
    "public_transport": "station",
    "railway": "station",
    "railway:ref": "Saz"
  }
},
{
  "type": "node",
  "id": 307067332,
  "lat": 46.9966209,
  "lon": 15.2828496,
  "tags": {
    "alt_name": "Söding Söding-Mooskirchen Bahnhof",
    "name": "Söding-Mooskirchen",
    "operator": "ÖBB-Infrastruktur AG",
    "platforms": "2",
    "public_transport": "station",
    "railway": "station",
    "railway:position": "21.6",
    "railway:position:exact": "21.569",
    "railway:ref": "Smk",
    "ref:IFOPT": "at:46:1280:1:zug",
    "uic_name": "Söding-Mooskirchen",
    "uic_ref": "8101557",
    "wheelchair": "yes"
  }
},
{
  "type": "node",
  "id": 307665890,
  "lat": 46.7245749,
  "lon": 15.7977640,
  "tags": {
    "ele": "234",
    "name": "Gosdorf",
    "operator": "ÖBB-Infrastruktur AG",
    "public_transport": "stop_position",
    "railway": "station",
    "railway:ref": "Gof",
    "ref": "1",
    "ref:IFOPT": "at:46:1858:1:zug",
    "train": "yes"
  }
},
{
  "type": "node",
  "id": 308966927,
  "lat": 47.7040849,
  "lon": 16.9034574,
  "tags": {
    "name": "Pamhagen",
    "name:hu": "Pomogy",
    "operator": "NSB",
    "public_transport": "station",
    "railway": "station",
    "railway:name:VPE": "Pamhagen",
    "railway:ref": "Pam",
    "uic_ref": "8133028",
    "wikidata": "Q21890526"
  }
},
{
  "type": "node",
  "id": 310507988,
  "lat": 47.7278099,
  "lon": 16.5176658,
  "tags": {
    "name": "Baumgarten-Schattendorf",
    "network": "VOR",
    "operator": "GySEV",
    "public_transport": "station",
    "railway": "station",
    "railway:name:VPE": "Baumgarten",
    "railway:ref": "Bgt",
    "uic_ref": "8133216"
  }
},
{
  "type": "node",
  "id": 310508282,
  "lat": 47.8347093,
  "lon": 16.4591033,
  "tags": {
    "name": "Müllendorf",
    "operator": "GySEV",
    "railway": "station",
    "railway:position": "22.6",
    "railway:ref": "Mld",
    "wheelchair": "yes"
  }
},
{
  "type": "node",
  "id": 314553014,
  "lat": 47.2437466,
  "lon": 12.2279696,
  "tags": {
    "ele": "869",
    "name": "Wald im Pinzgau",
    "network": "Salzburger Verkehrsverbund",
    "on_demand": "yes",
    "operator": "Salzburg AG, Pinzgauer Lokalbahn",
    "railway": "station",
    "railway:position": "49.7",
    "railway:position:exact": "49.659",
    "railway:ref": "Wap",
    "train": "yes",
    "uic_name": "Wald im Pinzgau",
    "uic_ref": "8100340"
  }
},
{
  "type": "node",
  "id": 314553084,
  "lat": 47.2346007,
  "lon": 12.1964004,
  "tags": {
    "ele": "911",
    "name": "Krimml",
    "network": "Salzburger Verkehrsverbund",
    "operator": "Salzburg AG, Pinzgauer Lokalbahn",
    "public_transport": "station",
    "railway": "station",
    "railway:position": "52.7",
    "railway:position:exact": "52.732",
    "railway:ref": "Krl",
    "train": "yes",
    "uic_name": "Krimml",
    "uic_ref": "8100296"
  }
},
{
  "type": "node",
  "id": 314559544,
  "lat": 47.2696893,
  "lon": 12.3446062,
  "tags": {
    "name": "Bramberg",
    "network": "Salzburger Verkehrsverbund",
    "on_demand": "yes",
    "operator": "Salzburg AG, Pinzgauer Lokalbahn",
    "railway": "station",
    "railway:ref": "Bbg",
    "train": "yes",
    "uic_name": "Bramberg am Wildkogel",
    "uic_ref": "8100458"
  }
},
{
  "type": "node",
  "id": 314566710,
  "lat": 47.2772859,
  "lon": 12.3885788,
  "tags": {
    "alt_name": "Dorf-Paß Thurn",
    "disused:railway:ref": "Hba H1",
    "name": "Dorf-Pass Thurn",
    "network": "Salzburger Verkehrsverbund",
    "note": "Neues Betriebskürzel, da jetzt Bf und nicht mehr Hst?",
    "old_name": "Dorf-Paßthurn",
    "operator": "Salzburg AG, Pinzgauer Lokalbahn",
    "railway": "station",
    "railway:ref": "Dpt",
    "uic_name": "Dorf im Pinzgau-Pass Thurn",
    "uic_ref": "8100730"
  }
},
{
  "type": "node",
  "id": 314733686,
  "lat": 47.8266887,
  "lon": 16.1732429,
  "tags": {
    "name": "Bad Fischau-Brunn",
    "operator": "ÖBB-Infrastruktur AG",
    "public_transport": "station",
    "railway": "station",
    "railway:ref": "Fib"
  }
},
{
  "type": "node",
  "id": 315111042,
  "lat": 47.8398647,
  "lon": 16.9158115,
  "tags": {
    "name": "Frauenkirchen",
    "name:hu": "Boldogasszony",
    "operator": "NSB",
    "public_transport": "station",
    "railway": "station",
    "railway:ref": "Frk",
    "train": "yes",
    "wheelchair": "yes"
  }
},
{
  "type": "node",
  "id": 317367609,
  "lat": 48.2715821,
  "lon": 14.2019995,
  "tags": {
    "name": "Dörnbach-Hitzing",
    "operator": "StH",
    "public_transport": "stop_position",
    "railway": "station",
    "train": "yes",
    "uic_ref": "8100717"
  }
},
{
  "type": "node",
  "id": 319351630,
  "lat": 47.6721752,
  "lon": 15.9110463,
  "tags": {
    "name": "Eichberg",
    "operator": "ÖBB-Infrastruktur AG",
    "public_transport": "station",
    "railway": "station",
    "railway:ref": "Eib",
    "uic_ref": "8100736"
  }
},
{
  "type": "node",
  "id": 320189429,
  "lat": 48.0844134,
  "lon": 13.8833995,
  "tags": {
    "name": "Stadl-Paura",
    "operator": "ÖBB-Infrastruktur AG",
    "public_transport": "station",
    "railway": "station",
    "railway:position": "3.5",
    "railway:position:exact": "3.535",
    "railway:ref": "Stp",
    "train": "yes",
    "uic_ref": "8100308",
    "wheelchair": "yes"
  }
},
{
  "type": "node",
  "id": 321330275,
  "lat": 48.1973277,
  "lon": 16.2612741,
  "tags": {
    "addr:city": "Wien",
    "addr:country": "AT",
    "addr:housenumber": "5",
    "addr:postcode": "1140",
    "addr:street": "Keißlergasse",
    "name": "Wien Hütteldorf",
    "operator": "ÖBB-Infrastruktur AG",
    "public_transport": "station",
    "railway": "station",
    "railway:position": "5.9 / 2.1",
    "railway:position:exact": "5.846 / 2.124",
    "railway:ref": "Hf",
    "railway:ref:DB": "XAWH",
    "uic_ref": "8100447",
    "wheelchair": "limited",
    "wikidata": "Q801605",
    "wikipedia": "de:Bahnhof Wien Hütteldorf"
  }
},
{
  "type": "node",
  "id": 322950412,
  "lat": 48.1520921,
  "lon": 15.5398852,
  "tags": {
    "name": "Ober Grafendorf",
    "public_transport": "stop_position",
    "railway": "station",
    "train": "yes",
    "uic_ref": "8100505"
  }
},
{
  "type": "node",
  "id": 324017272,
  "lat": 48.1116918,
  "lon": 15.6084476,
  "tags": {
    "name": "Wilhelmsburg an der Traisen",
    "operator": "ÖBB-Infrastruktur AG",
    "public_transport": "station",
    "railway": "station",
    "railway:ref": "Wm",
    "train": "yes",
    "uic_name": "Wilhelmsburg an der Traisen",
    "uic_ref": "8101768",
    "wheelchair": "limited"
  }
},
{
  "type": "node",
  "id": 324679297,
  "lat": 48.5826375,
  "lon": 16.4928882,
  "tags": {
    "name": "Asparn",
    "railway": "station",
    "wheelchair": "yes"
  }
},
{
  "type": "node",
  "id": 324966487,
  "lat": 47.9830445,
  "lon": 13.6137888,
  "tags": {
    "name": "Lenzing",
    "operator": "ÖBB-Infrastruktur AG",
    "public_transport": "stop_position",
    "railway": "station",
    "railway:position:exact": "5.814",
    "railway:ref": "Lng",
    "start_date": "1944-01-18",
    "uic_ref": "8101141"
  }
},
{
  "type": "node",
  "id": 324971281,
  "lat": 48.0870026,
  "lon": 13.5628099,
  "tags": {
    "name": "Ampflwang",
    "operator": "ÖGEG",
    "railway": "station"
  }
},
{
  "type": "node",
  "id": 325063058,
  "lat": 48.0921303,
  "lon": 13.6649129,
  "tags": {
    "name": "Ottnang-Wolfsegg",
    "operator": "ÖBB-Infrastruktur AG",
    "public_transport": "stop_position",
    "railway": "station",
    "railway:ref": "Otg",
    "train": "yes",
    "uic_name": "Ottnang-Wolfsegg",
    "uic_ref": "8101327"
  }
},
{
  "type": "node",
  "id": 325743426,
  "lat": 47.1017281,
  "lon": 14.0905052,
  "tags": {
    "name": "St. Lorenzen ob Murau",
    "operator": "StB",
    "public_transport": "stop_position",
    "railway": "station",
    "train": "yes"
  }
},
{
  "type": "node",
  "id": 326309700,
  "lat": 47.1297914,
  "lon": 13.8078876,
  "tags": {
    "ele": "1019",
    "name": "Tamsweg",
    "operator": "STLB",
    "public_transport": "station",
    "railway": "station",
    "railway:position": "64.5",
    "uic_ref": "8100319",
    "wikidata": "Q111166826"
  }
},
{
  "type": "node",
  "id": 327287949,
  "lat": 47.1273823,
  "lon": 10.2673191,
  "tags": {
    "addr:housenumber": "6",
    "addr:street": "Bahnhofstraße",
    "ele": "1309",
    "name": "St. Anton am Arlberg",
    "network": "Verkehrsverbund Tirol",
    "network:short": "VVT",
    "network:wikidata": "Q1668732",
    "operator": "ÖBB-Infrastruktur AG",
    "platforms": "4",
    "public_transport": "station",
    "railway": "station",
    "railway:position": "99.4",
    "railway:position:exact": "99.360",
    "railway:ref": "Ao",
    "railway:ref:DB": "XAAB",
    "start_date": "1998",
    "train": "yes",
    "uic_name": "St. Anton am Arlberg",
    "uic_ref": "8100064",
    "wheelchair": "yes",
    "wikidata": "Q7587118",
    "wikipedia": "de:Bahnhof St. Anton am Arlberg"
  }
},
{
  "type": "node",
  "id": 327820423,
  "lat": 48.2004605,
  "lon": 13.4882935,
  "tags": {
    "name": "Ried im Innkreis",
    "operator": "ÖBB-Infrastruktur AG",
    "railway": "station",
    "railway:ref": "Rd",
    "uic_name": "Ried im Innkreis",
    "uic_ref": "8100405",
    "wheelchair": "limited"
  }
},
{
  "type": "node",
  "id": 328362700,
  "lat": 47.2247941,
  "lon": 15.2372517,
  "tags": {
    "alt_name": "Übelbach Bahnhof",
    "name": "Übelbach",
    "operator": "STLB",
    "public_transport": "stop_position",
    "railway": "station",
    "railway:ref": "Ueb",
    "ref:IFOPT": "at:46:351:1:zug",
    "train": "yes"
  }
},
{
  "type": "node",
  "id": 329439138,
  "lat": 48.0568811,
  "lon": 15.6123079,
  "tags": {
    "name": "Traisen",
    "opening_hours": "Mo-Fr 04:00-21:40; Sa 04:20-21:40; Su 04:40-21:30",
    "operator": "ÖBB-Infrastruktur AG",
    "public_transport": "station",
    "railway": "station",
    "railway:ref": "Trn",
    "train": "yes",
    "uic_name": "Traisen",
    "uic_ref": "8101643"
  }
},
{
  "type": "node",
  "id": 333221656,
  "lat": 47.1099804,
  "lon": 9.8661458,
  "tags": {
    "name": "St. Anton im Montafon",
    "operator": "Montafonerbahn AG",
    "railway": "station",
    "railway:position": "6.9",
    "railway:position:exact": "6.906",
    "railway:ref": "Amo",
    "uic_name": "St. Anton im Montafon",
    "wikidata": "Q56907398"
  }
},
{
  "type": "node",
  "id": 333885002,
  "lat": 47.4258823,
  "lon": 11.7296929,
  "tags": {
    "alt_name": "Seespitz am Achensee",
    "ele": "931",
    "name": "Achensee Seespitz",
    "operator": "Achenseebahn AG",
    "public_transport": "stop_position",
    "railway": "station",
    "railway:position": "6.7",
    "train": "yes",
    "wheelchair": "yes",
    "wikimedia_commons": "File:Achenseebahn train at Seespitz station.jpg"
  }
},
{
  "type": "node",
  "id": 333885228,
  "lat": 47.3889938,
  "lon": 11.7793332,
  "tags": {
    "contact:phone": "+43 5244 62243",
    "ele": "530",
    "email": "info@achenseebahn.at",
    "name": "Jenbach Achenseebahn",
    "operator": "Achenseebahn AG",
    "public_transport": "station",
    "railway": "station",
    "railway:position": "0.0",
    "train": "yes",
    "website": "https://www.achenseebahn.at/",
    "wheelchair": "no",
    "wikimedia_commons": "File:Bahnhof Jenbach - Achenseebahn, 2014 (03).JPG"
  }
},
{
  "type": "node",
  "id": 333925300,
  "lat": 47.3263523,
  "lon": 11.8652692,
  "tags": {
    "ele": "544",
    "name": "Uderns im Zillertal",
    "network": "Verkehrsverbund Tirol",
    "operator": "Zillertaler Verkehrsbetriebe",
    "public_transport": "station",
    "railway": "station",
    "railway:position": "12.5",
    "railway:position:exact": "12.528",
    "wikidata": "Q72834232"
  }
},
{
  "type": "node",
  "id": 337863237,
  "lat": 47.2632966,
  "lon": 11.4010207,
  "tags": {
    "ele": "582",
    "name": "Innsbruck Hauptbahnhof",
    "network": "Verkehrsverbund Tirol",
    "network:short": "VVT",
    "network:wikidata": "Q1668732",
    "operator": "ÖBB-Infrastruktur AG",
    "platforms": "11",
    "public_transport": "station",
    "railway": "station",
    "railway:position": "75.1 / -0.4",
    "railway:position:exact": "75.130 / -0.434",
    "railway:ref": "I",
    "railway:ref:DB": "XAI",
    "short_name": "Innsbruck Hbf",
    "toilets:wheelchair": "yes",
    "train": "yes",
    "uic_name": "Innsbruck Hbf",
    "uic_ref": "8100108",
    "wheelchair": "yes",
    "wikidata": "Q668727",
    "wikipedia": "de:Innsbruck Hauptbahnhof"
  }
},
{
  "type": "node",
  "id": 344968050,
  "lat": 47.7339670,
  "lon": 16.9304551,
  "tags": {
    "name": "Wallern im Burgenland",
    "operator": "NSB",
    "public_transport": "station",
    "railway": "station",
    "railway:ref": "Wal"
  }
},
{
  "type": "node",
  "id": 348265495,
  "lat": 48.2429663,
  "lon": 15.3374826,
  "tags": {
    "name": "Emmersdorf a.d. Donau",
    "note": "Schreibweise lt. ÖBB-Verzeichnis",
    "public_transport": "station",
    "railway": "station",
    "train": "yes",
    "uic_name": "Emmersdorf an der Donau",
    "uic_ref": "8100232"
  }
},
{
  "type": "node",
  "id": 348270182,
  "lat": 48.2966400,
  "lon": 15.4029271,
  "tags": {
    "name": "Aggsbach Markt",
    "public_transport": "station",
    "railway": "station",
    "train": "yes",
    "uic_name": "Aggsbach Markt",
    "uic_ref": "8100206"
  }
},
{
  "type": "node",
  "id": 348282921,
  "lat": 48.3649927,
  "lon": 15.4174602,
  "tags": {
    "alt_name": "Spitz an der Donau",
    "name": "Spitz a.d. Donau",
    "note": "unterschiedliche Schreibweisen lt. ÖBB-Verzeichnis/IBNR Verz. beibehalten!",
    "operator": "NÖVOG",
    "public_transport": "station",
    "railway": "station",
    "train": "yes",
    "uic_name": "Spitz an der Donau",
    "uic_ref": "8100307",
    "wheelchair": "yes"
  }
},
{
  "type": "node",
  "id": 369224763,
  "lat": 48.2433164,
  "lon": 13.3349983,
  "tags": {
    "name": "Gurten",
    "operator": "ÖBB-Infrastruktur AG",
    "public_transport": "stop_position",
    "railway": "station",
    "railway:ref": "Gur",
    "train": "yes",
    "uic_name": "Gurten OÖ",
    "uic_ref": "8100263",
    "wheelchair": "yes"
  }
},
{
  "type": "node",
  "id": 387678688,
  "lat": 48.0079360,
  "lon": 13.5959427,
  "tags": {
    "name": "Timelkam",
    "operator": "ÖBB-Infrastruktur AG",
    "public_transport": "station",
    "railway": "station",
    "railway:ref": "Tm",
    "uic_ref": "8101670",
    "wheelchair": "limited",
    "wheelchair:description:de": "Die meisten Züge verfügen über Rollstuhl-Rampen, die manuell ausgeklappt werden müssen.",
    "wheelchair:description:en": "Most trains have manual operated ramps"
  }
},
{
  "type": "node",
  "id": 388000380,
  "lat": 48.2705046,
  "lon": 13.2577942,
  "tags": {
    "name": "Obernberg-Altheim",
    "operator": "ÖBB-Infrastruktur AG",
    "railway": "station",
    "railway:ref": "Ath",
    "wikidata": "Q111166269"
  }
},
{
  "type": "node",
  "id": 410623327,
  "lat": 47.9491999,
  "lon": 14.3549217,
  "tags": {
    "name": "Ternberg",
    "operator": "ÖBB-Infrastruktur AG",
    "public_transport": "stop_position",
    "railway": "station",
    "railway:ref": "Te",
    "train": "yes",
    "uic_ref": "8100322"
  }
},
{
  "type": "node",
  "id": 412467960,
  "lat": 48.0735493,
  "lon": 13.1798653,
  "tags": {
    "name": "Munderfing",
    "operator": "ÖBB-Infrastruktur AG",
    "public_transport": "stop_position",
    "railway": "station",
    "railway:ref": "Mun",
    "train": "yes",
    "uic_name": "Munderfing",
    "uic_ref": "8100489"
  }
},
{
  "type": "node",
  "id": 412467969,
  "lat": 48.1087801,
  "lon": 13.1523213,
  "tags": {
    "name": "Mattighofen",
    "operator": "ÖBB-Infrastruktur AG",
    "public_transport": "stop_position",
    "railway": "station",
    "railway:ref": "Mho",
    "train": "yes",
    "uic_name": "Mattighofen",
    "uic_ref": "8100409",
    "wheelchair": "limited",
    "wikidata": "Q111267123"
  }
},
{
  "type": "node",
  "id": 413987840,
  "lat": 48.2310808,
  "lon": 13.8390250,
  "tags": {
    "addr:city": "Grieskirchen",
    "addr:country": "AT",
    "addr:housenumber": "26",
    "addr:postcode": "4710",
    "addr:street": "Bahnhofstraße",
    "name": "Grieskirchen-Gallspach",
    "operator": "ÖBB-Infrastruktur AG",
    "platforms": "2",
    "public_transport": "station",
    "railway": "station",
    "railway:ref": "Gk",
    "uic_ref": "8100022",
    "wheelchair": "yes"
  }
},
{
  "type": "node",
  "id": 417184612,
  "lat": 47.7071195,
  "lon": 15.8160640,
  "tags": {
    "name": "Hirschwang",
    "public_transport": "stop_position",
    "railway": "station",
    "uic_ref": "8153718"
  }
},
{
  "type": "node",
  "id": 417184648,
  "lat": 47.6980413,
  "lon": 15.8393456,
  "tags": {
    "name": "Reichenau",
    "public_transport": "stop_position",
    "railway": "station",
    "uic_ref": "8165233"
  }
},
{
  "type": "node",
  "id": 419610148,
  "lat": 48.0181555,
  "lon": 16.2588865,
  "tags": {
    "name": "Pfaffstätten",
    "note": "old railway:ref=Md H3",
    "operator": "ÖBB-Infrastruktur AG",
    "platforms": "2",
    "railway": "station",
    "railway:position": "24.1",
    "railway:position:exact": "24.140",
    "railway:ref": "Bf",
    "uic_name": "Pfaffstätten",
    "uic_ref": "8101352"
  }
},
{
  "type": "node",
  "id": 423361774,
  "lat": 48.4069862,
  "lon": 13.5223109,
  "tags": {
    "name": "Taufkirchen an der Pram",
    "operator": "ÖBB-Infrastruktur AG",
    "public_transport": "station",
    "railway": "station",
    "railway:ref": "Tp",
    "train": "yes",
    "uic_name": "Taufkirchen an der Pram",
    "uic_ref": "8100320"
  }
},
{
  "type": "node",
  "id": 423384346,
  "lat": 48.2094941,
  "lon": 13.9750533,
  "tags": {
    "name": "Haiding",
    "operator": "ÖBB-Infrastruktur AG",
    "public_transport": "station",
    "railway": "station",
    "railway:ref": "Had",
    "train": "yes",
    "uic_ref": "8100265"
  }
},
{
  "type": "node",
  "id": 425061282,
  "lat": 48.3933628,
  "lon": 15.5251499,
  "tags": {
    "name": "Dürnstein-Oberloiben",
    "public_transport": "station",
    "railway": "station",
    "railway:ref": "Du",
    "uic_name": "Dürnstein-Oberloiben",
    "uic_ref": "8100224",
    "wheelchair": "no"
  }
},
{
  "type": "node",
  "id": 441057215,
  "lat": 47.7534728,
  "lon": 15.8507477,
  "tags": {
    "ele": "1398",
    "name": "Baumgartner",
    "operator": "NÖSBB",
    "public_transport": "stop_position",
    "railway": "station",
    "railway:ref": "Bau",
    "train": "yes"
  }
},
{
  "type": "node",
  "id": 445845280,
  "lat": 47.5208498,
  "lon": 14.9512205,
  "tags": {
    "ele": "1204",
    "name": "Präbichl",
    "operator": "VE",
    "railway": "station",
    "railway:position": "12.0"
  }
},
{
  "type": "node",
  "id": 451790949,
  "lat": 48.0741270,
  "lon": 14.0579416,
  "tags": {
    "ele": "400",
    "name": "Sattledt",
    "operator": "ÖBB-Infrastruktur AG",
    "public_transport": "station",
    "railway": "station",
    "railway:position": "12.9 / 0.0",
    "railway:position:exact": "12.856 / 0.000",
    "railway:ref": "Sad",
    "train": "yes",
    "uic_ref": "8100416"
  }
},
{
  "type": "node",
  "id": 451790956,
  "lat": 48.1193113,
  "lon": 14.0179378,
  "tags": {
    "ele": "385",
    "name": "Steinhaus bei Wels",
    "operator": "ÖBB-Infrastruktur AG",
    "public_transport": "station",
    "railway": "station",
    "railway:position": "6.4",
    "railway:position:exact": "6.396",
    "railway:ref": "Sth",
    "train": "yes",
    "uic_name": "Steinhaus b. Wels",
    "uic_ref": "8101521"
  }
},
{
  "type": "node",
  "id": 452907511,
  "lat": 47.9869005,
  "lon": 16.8707388,
  "tags": {
    "name": "Parndorf",
    "operator": "ÖBB-Infrastruktur AG",
    "platforms": "3",
    "public_transport": "station",
    "railway": "station",
    "railway:position": "49.3 / 0.1",
    "railway:position:exact": "49.250 / 0.102",
    "railway:ref": "Par",
    "uic_name": "Parndorf",
    "uic_ref": "8101335",
    "wheelchair": "no",
    "wikidata": "Q20493287"
  }
},
{
  "type": "node",
  "id": 463092859,
  "lat": 47.1316145,
  "lon": 10.1212460,
  "tags": {
    "ele": "1217",
    "name": "Langen am Arlberg",
    "operator": "ÖBB-Infrastruktur AG",
    "platforms": "2",
    "public_transport": "station",
    "railway": "station",
    "railway:position": "110.7",
    "railway:position:exact": "110.715",
    "railway:ref": "Lan",
    "uic_name": "Langen am Arlberg",
    "uic_ref": "8100065",
    "wheelchair": "yes",
    "wikidata": "Q56908659"
  }
},
{
  "type": "node",
  "id": 470850771,
  "lat": 47.1795712,
  "lon": 15.6672828,
  "tags": {
    "alt_name": "Unterfladnitz Bahnhof",
    "name": "Unterfladnitz",
    "operator": "STLB",
    "public_transport": "stop_position",
    "railway": "station",
    "ref:IFOPT": "at:46:329:1:zug",
    "train": "yes",
    "uic_name": "Unterfladnitz",
    "uic_ref": "8100794"
  }
},
{
  "type": "node",
  "id": 472919473,
  "lat": 46.9408924,
  "lon": 15.3345372,
  "tags": {
    "alt_name": "Lannach Bahnhof",
    "name": "Lannach",
    "operator": "ÖBB-Infrastruktur AG",
    "platforms": "2",
    "public_transport": "station",
    "railway": "station",
    "railway:position": "4.3",
    "railway:position:exact": "4.310",
    "railway:ref": "Lnn",
    "ref:IFOPT": "at:46:889:1:zug",
    "wheelchair": "yes"
  }
},
{
  "type": "node",
  "id": 472943912,
  "lat": 46.8580040,
  "lon": 15.3817905,
  "tags": {
    "alt_name": "Preding in Weststeiermark Bahnhof",
    "name": "Preding-Wieselsdorf",
    "operator": "ÖBB-Infrastruktur AG",
    "platforms": "2",
    "public_transport": "station",
    "railway": "station",
    "railway:position": "14.5",
    "railway:position:exact": "14.451",
    "railway:ref": "Pwd",
    "ref:IFOPT": "at:46:907:1:zug",
    "wheelchair": "yes"
  }
},
{
  "type": "node",
  "id": 472954021,
  "lat": 46.8208741,
  "lon": 15.3178792,
  "tags": {
    "name": "Groß St. Florian",
    "note": "uic_name steht SO (ohne Abstand) in der UIC Liste; bitte nicht ausbessern",
    "operator": "ÖBB-Infrastruktur AG",
    "platforms": "2",
    "public_transport": "station",
    "railway": "station",
    "railway:position": "22.5",
    "railway:position:exact": "22.511",
    "railway:ref": "Gfl",
    "uic_name": "Groß St.Florian",
    "uic_ref": "8100837"
  }
},
{
  "type": "node",
  "id": 473699102,
  "lat": 47.0796627,
  "lon": 9.9172600,
  "tags": {
    "ele": "681",
    "name": "Schruns",
    "operator": "Montafonerbahn AG",
    "public_transport": "station",
    "railway": "station",
    "railway:position": "12.7",
    "railway:position:exact": "12.717",
    "railway:ref": "Sns",
    "uic_ref": "8100117",
    "wheelchair": "yes",
    "wikidata": "Q23672114",
    "wikipedia": "de:Bahnhof Schruns"
  }
},
{
  "type": "node",
  "id": 496059585,
  "lat": 47.7007440,
  "lon": 16.4918685,
  "tags": {
    "name": "Loipersbach-Schattendorf",
    "operator": "ÖBB-Infrastruktur AG",
    "public_transport": "station",
    "railway": "station",
    "railway:ref": "Ls",
    "train": "yes",
    "uic_ref": "8100398"
  }
},
{
  "type": "node",
  "id": 507393720,
  "lat": 46.8716254,
  "lon": 15.9035433,
  "tags": {
    "alt_name": "Bad Gleichenberg Bahnhof",
    "ele": "269",
    "name": "Bad Gleichenberg",
    "operator": "StB",
    "public_transport": "stop_position",
    "railway": "station",
    "railway:ref": "Gbg",
    "ref:IFOPT": "at:46:1939:1:zug",
    "train": "yes",
    "uic_name": "Bad Gleichenberg",
    "uic_ref": "8100174",
    "wheelchair": "yes"
  }
},
{
  "type": "node",
  "id": 550191106,
  "lat": 47.0614599,
  "lon": 15.0826703,
  "tags": {
    "alt_name": "Köflach Bahnhof",
    "name": "Köflach",
    "operator": "ÖBB-Infrastruktur AG",
    "platforms": "2",
    "public_transport": "station",
    "railway": "station",
    "railway:position": "40.0",
    "railway:position:exact": "39.960",
    "railway:ref": "Kfl",
    "ref:IFOPT": "at:46:498:1:zug",
    "wheelchair": "yes"
  }
},
{
  "type": "node",
  "id": 585355903,
  "lat": 48.7225423,
  "lon": 14.9047927,
  "tags": {
    "name": "Alt Weitra",
    "public_transport": "station",
    "railway": "station",
    "railway:ref": "Gm K1",
    "uic_ref": "8100643"
  }
},
{
  "type": "node",
  "id": 587886981,
  "lat": 47.4213282,
  "lon": 10.7933375,
  "tags": {
    "ele": "1072",
    "name": "Bichlbach-Berwang",
    "network": "Verkehrsverbund Tirol",
    "network:short": "VVT",
    "network:wikidata": "Q1668732",
    "operator": "ÖBB-Infrastruktur AG",
    "platforms": "2",
    "public_transport": "station",
    "railway": "station",
    "railway:position": "13.1",
    "railway:position:exact": "13.069",
    "railway:ref": "Bch",
    "railway:ref:DB": "XABI",
    "train": "yes",
    "wheelchair": "yes",
    "wikidata": "Q800525",
    "wikipedia": "de:Bahnhof Bichlbach-Berwang"
  }
},
{
  "type": "node",
  "id": 587888857,
  "lat": 47.4053796,
  "lon": 10.8788624,
  "tags": {
    "ele": "1004",
    "name": "Lermoos",
    "network": "Verkehrsverbund Tirol",
    "network:short": "VVT",
    "network:wikidata": "Q1668732",
    "operator": "ÖBB-Infrastruktur AG",
    "platforms": "2",
    "public_transport": "station",
    "railway": "station",
    "railway:position": "20.4",
    "railway:position:exact": "20.356",
    "railway:ref": "Ler",
    "railway:ref:DB": "XALM",
    "toilets:wheelchair": "yes",
    "train": "yes",
    "wheelchair": "yes",
    "wikidata": "Q38176683"
  }
},
{
  "type": "node",
  "id": 616151316,
  "lat": 47.2846108,
  "lon": 12.8283989,
  "tags": {
    "name": "Bruck-Fusch",
    "operator": "ÖBB-Infrastruktur AG",
    "railway": "station",
    "railway:position": "93.7",
    "railway:position:exact": "93.734",
    "railway:ref": "Brf",
    "wheelchair": "yes"
  }
},
{
  "type": "node",
  "id": 619805688,
  "lat": 47.8127808,
  "lon": 13.0445107,
  "tags": {
    "alt_name": "Salzburg Hauptbahnhof (Lokalbahn)",
    "layer": "-1",
    "level": "-3",
    "name": "Salzburg Hauptbahnhof (S-Bahn)",
    "network": "Salzburger Verkehrsverbund",
    "network:short": "SVV",
    "network:wikidata": "Q1254319",
    "operator": "Salzburg AG Verkehr",
    "public_transport": "station",
    "railway": "station",
    "railway:ref": "SALB",
    "short_name": "Salzburg Hbf (S-Bahn)",
    "train": "yes",
    "uic_name": "Salzburg Hbf (Lokalbahn)",
    "uic_ref": "8100414",
    "wheelchair": "yes"
  }
},
{
  "type": "node",
  "id": 677243566,
  "lat": 48.1839155,
  "lon": 15.1821138,
  "tags": {
    "ele": "223",
    "name": "Erlauf",
    "operator": "ÖBB-Infrastruktur AG",
    "public_transport": "station",
    "railway": "station",
    "railway:position": "4.4",
    "railway:position:exact": "4.370",
    "railway:ref": "Erf",
    "train": "yes"
  }
},
{
  "type": "node",
  "id": 683553111,
  "lat": 47.9318829,
  "lon": 13.8458936,
  "tags": {
    "name": "Gschwandt-Rabesberg",
    "public_transport": "stop_position",
    "railway": "station",
    "train": "yes",
    "uic_name": "Gschwandt-Rabesberg",
    "uic_ref": "8100893"
  }
},
{
  "type": "node",
  "id": 704389592,
  "lat": 48.6402895,
  "lon": 14.8421329,
  "tags": {
    "name": "Steinbach-Bad Großpertholz",
    "railway": "station",
    "railway:ref": "Sgp",
    "uic_ref": "8101508"
  }
},
{
  "type": "node",
  "id": 755510125,
  "lat": 47.5286769,
  "lon": 16.4700106,
  "tags": {
    "name": "Stoob",
    "note": "Draisine",
    "old_name": "Csáva",
    "public_transport": "station",
    "railway": "station",
    "railway:ref": "Sto",
    "train": "yes",
    "usage": "tourism",
    "wheelchair": "yes"
  }
},
{
  "type": "node",
  "id": 776039824,
  "lat": 48.7004692,
  "lon": 14.9015511,
  "tags": {
    "name": "Weitra",
    "public_transport": "station",
    "railway": "station",
    "railway:ref": "Wra",
    "uic_ref": "8101808",
    "wheelchair": "no"
  }
},
{
  "type": "node",
  "id": 776065142,
  "lat": 48.7649213,
  "lon": 14.9839592,
  "tags": {
    "name": "Gmünd NÖ (NÖVOG)",
    "public_transport": "station",
    "railway": "station",
    "website": "https://www.waldviertelbahn.at/"
  }
},
{
  "type": "node",
  "id": 778890479,
  "lat": 47.9681566,
  "lon": 13.7454405,
  "tags": {
    "name": "Aurachkirchen",
    "operator": "ÖBB-Infrastruktur AG",
    "public_transport": "stop_position",
    "railway": "station",
    "railway:position:exact": "101.926",
    "railway:ref": "Ak",
    "train": "yes",
    "uic_name": "Aurachkirchen",
    "uic_ref": "8100639"
  }
},
{
  "type": "node",
  "id": 832477442,
  "lat": 48.1916634,
  "lon": 13.1288188,
  "tags": {
    "name": "Mauerkirchen",
    "operator": "ÖBB-Infrastruktur AG",
    "public_transport": "stop_position",
    "railway": "station",
    "railway:ref": "Mau",
    "train": "yes",
    "uic_name": "Mauerkirchen",
    "uic_ref": "8100410",
    "wheelchair": "no"
  }
},
{
  "type": "node",
  "id": 853046849,
  "lat": 47.2707490,
  "lon": 15.6989902,
  "tags": {
    "alt_name": "Anger bei Weiz Bahnhof",
    "name": "Anger",
    "operator": "FTB",
    "public_transport": "station",
    "railway": "station",
    "ref:IFOPT": "at:46:5180:1:zug",
    "train": "yes"
  }
},
{
  "type": "node",
  "id": 853256851,
  "lat": 47.3016055,
  "lon": 15.6935090,
  "tags": {
    "name": "Rosegg",
    "operator": "FTB",
    "public_transport": "station",
    "railway": "station"
  }
},
{
  "type": "node",
  "id": 924440924,
  "lat": 47.0752383,
  "lon": 13.8300678,
  "tags": {
    "name": "Ramingstein Thomatal",
    "operator": "StB",
    "public_transport": "stop_position",
    "railway": "station",
    "train": "yes",
    "uic_name": "Ramingstein-Thomatal",
    "uic_ref": "8101444"
  }
},
{
  "type": "node",
  "id": 924613682,
  "lat": 47.1089886,
  "lon": 14.1735569,
  "tags": {
    "ele": "809",
    "name": "Murau",
    "operator": "STLB",
    "public_transport": "station",
    "railway": "station",
    "railway:position": "27.0",
    "uic_name": "Murau-Stolzalpe",
    "uic_ref": "8100490"
  }
},
{
  "type": "node",
  "id": 924625612,
  "lat": 47.1327719,
  "lon": 14.3050294,
  "tags": {
    "name": "Frojach",
    "operator": "STLB",
    "public_transport": "station",
    "railway": "station",
    "train": "yes",
    "uic_ref": "8101836",
    "wikidata": "Q38153694"
  }
},
{
  "type": "node",
  "id": 924625672,
  "lat": 47.1349967,
  "lon": 14.3622630,
  "tags": {
    "name": "Teufenbach",
    "operator": "StB",
    "public_transport": "stop_position",
    "railway": "station",
    "train": "yes",
    "uic_name": "Teufenbach/Mur",
    "uic_ref": "8101655"
  }
},
{
  "type": "node",
  "id": 924626036,
  "lat": 47.1461659,
  "lon": 14.3752391,
  "tags": {
    "name": "Niederwölz",
    "operator": "StB",
    "public_transport": "stop_position",
    "railway": "station",
    "train": "yes",
    "uic_ref": "8101285"
  }
},
{
  "type": "node",
  "id": 925845206,
  "lat": 47.0847691,
  "lon": 13.9815195,
  "tags": {
    "name": "Stadl an der Mur",
    "operator": "StB",
    "public_transport": "stop_position",
    "railway": "station",
    "train": "yes",
    "uic_name": "Stadl/Mur",
    "uic_ref": "8100533",
    "wikidata": "Q37789256"
  }
},
{
  "type": "node",
  "id": 925950622,
  "lat": 47.1406914,
  "lon": 13.7433324,
  "tags": {
    "name": "Mariapfarr",
    "operator": "TB",
    "public_transport": "station",
    "railway": "station"
  }
},
{
  "type": "node",
  "id": 925950623,
  "lat": 47.1302472,
  "lon": 13.6843516,
  "tags": {
    "name": "Mauterndorf",
    "operator": "TB",
    "public_transport": "station",
    "railway": "station",
    "wikidata": "Q37913254"
  }
},
{
  "type": "node",
  "id": 926504361,
  "lat": 48.1296072,
  "lon": 13.5715850,
  "tags": {
    "name": "Hausruck",
    "operator": "ÖBB-Infrastruktur AG",
    "public_transport": "stop_position",
    "railway": "station",
    "railway:ref": "Hs",
    "train": "yes",
    "uic_name": "Hausruck",
    "uic_ref": "8100980"
  }
},
{
  "type": "node",
  "id": 946144582,
  "lat": 48.3305349,
  "lon": 13.8529942,
  "tags": {
    "name": "Waizenkirchen",
    "operator": "StH",
    "public_transport": "stop_position",
    "railway": "station",
    "wikidata": "Q111167446"
  }
},
{
  "type": "node",
  "id": 957159525,
  "lat": 47.9288549,
  "lon": 15.0859421,
  "tags": {
    "ele": "450",
    "name": "Gaming",
    "public_transport": "station",
    "railway": "station",
    "railway:position": "67.9",
    "train": "yes"
  }
},
{
  "type": "node",
  "id": 957159572,
  "lat": 47.8965095,
  "lon": 15.0165119,
  "tags": {
    "ele": "694",
    "name": "Pfaffenschlag",
    "public_transport": "station",
    "railway": "station",
    "railway:position": "59.7",
    "train": "yes"
  }
},
{
  "type": "node",
  "id": 957186582,
  "lat": 47.4930798,
  "lon": 10.7216384,
  "tags": {
    "addr:city": "Reutte",
    "addr:country": "AT",
    "addr:housenumber": "21",
    "addr:postcode": "6600",
    "addr:street": "Bahnhofstraße",
    "ele": "850",
    "name": "Reutte in Tirol",
    "network": "Verkehrsverbund Tirol",
    "network:short": "VVT",
    "network:wikidata": "Q1668732",
    "operator": "ÖBB-Infrastruktur AG",
    "platforms": "2",
    "public_transport": "station",
    "railway": "station",
    "railway:position": "14.4 / 0.0",
    "railway:position:exact": "14.390 / 0.000",
    "railway:ref": "Rt",
    "railway:ref:DB": "XART",
    "train": "yes",
    "wheelchair": "yes",
    "wikidata": "Q38089500"
  }
},
{
  "type": "node",
  "id": 967766276,
  "lat": 47.8044722,
  "lon": 13.7716670,
  "tags": {
    "name": "Ebensee",
    "operator": "ÖBB-Infrastruktur AG",
    "public_transport": "stop_position",
    "railway": "station",
    "railway:ref": "En",
    "train": "yes",
    "uic_name": "Ebensee",
    "uic_ref": "8100155",
    "wheelchair": "limited"
  }
},
{
  "type": "node",
  "id": 981329989,
  "lat": 47.2468332,
  "lon": 11.3998662,
  "tags": {
    "public_transport": "station",
    "railway": "station",
    "station": "funicular",
    "website": "https://www.bergisel.info/"
  }
},
{
  "type": "node",
  "id": 981330000,
  "lat": 47.2488155,
  "lon": 11.4000892,
  "tags": {
    "public_transport": "station",
    "railway": "station",
    "station": "funicular",
    "website": "https://www.bergisel.info/"
  }
},
{
  "type": "node",
  "id": 1014035376,
  "lat": 48.3119791,
  "lon": 14.2796016,
  "tags": {
    "name": "Linz Urfahr",
    "operator": "ÖBB-Infrastruktur AG",
    "public_transport": "stop_position",
    "railway": "station",
    "railway:ref": "Uf",
    "train": "yes",
    "uic_ref": "8100396",
    "wheelchair": "limited",
    "wikidata": "Q801101"
  }
},
{
  "type": "node",
  "id": 1226648929,
  "lat": 47.6960879,
  "lon": 15.8592977,
  "tags": {
    "name": "Payerbach Lokalbahn",
    "public_transport": "stop_position",
    "railway": "station",
    "train": "yes"
  }
},
{
  "type": "node",
  "id": 1227972625,
  "lat": 47.6733215,
  "lon": 14.3474844,
  "tags": {
    "name": "Spital am Pyhrn",
    "operator": "ÖBB-Infrastruktur AG",
    "public_transport": "platform",
    "railway": "station",
    "railway:ref": "Spi",
    "uic_name": "Spital am Pyhrn",
    "uic_ref": "8100306"
  }
},
{
  "type": "node",
  "id": 1254082871,
  "lat": 46.8836201,
  "lon": 15.5216296,
  "tags": {
    "alt_name": "Wildon Bahnhof",
    "name": "Wildon",
    "operator": "ÖBB-Infrastruktur AG",
    "public_transport": "station",
    "railway": "station",
    "railway:ref": "Wi",
    "ref:IFOPT": "at:46:1748:1:zug"
  }
},
{
  "type": "node",
  "id": 1275124058,
  "lat": 48.2495854,
  "lon": 14.2755504,
  "tags": {
    "name": "Linz Wegscheid",
    "operator": "ÖBB-Infrastruktur AG",
    "public_transport": "station",
    "railway": "station",
    "railway:ref": "Wd",
    "train": "yes",
    "wheelchair": "no"
  }
},
{
  "type": "node",
  "id": 1279571961,
  "lat": 48.0049420,
  "lon": 15.1644360,
  "tags": {
    "ele": "331",
    "name": "Scheibbs",
    "operator": "ÖBB-Infrastruktur AG",
    "public_transport": "station",
    "railway": "station",
    "railway:position": "26.9",
    "railway:position:exact": "26.928",
    "railway:ref": "Sbs",
    "train": "yes"
  }
},
{
  "type": "node",
  "id": 1341038697,
  "lat": 47.9525496,
  "lon": 13.8804925,
  "tags": {
    "name": "Eisengattern",
    "public_transport": "stop_position",
    "railway": "station",
    "train": "yes",
    "uic_name": "Eisengattern",
    "uic_ref": "8100765"
  }
},
{
  "type": "node",
  "id": 1341051784,
  "lat": 47.9753579,
  "lon": 13.8987566,
  "tags": {
    "name": "Kirchham b.Vorchdorf",
    "public_transport": "stop_position",
    "railway": "station",
    "train": "yes",
    "uic_name": "Kirchham b.Vorchdorf",
    "uic_ref": "8101047"
  }
},
{
  "type": "node",
  "id": 1349442912,
  "lat": 48.1896436,
  "lon": 14.2584900,
  "tags": {
    "name": "Nettingsdorf",
    "operator": "ÖBB-Infrastruktur AG",
    "public_transport": "station",
    "railway": "station",
    "railway:ref": "Net"
  }
},
{
  "type": "node",
  "id": 1352828685,
  "lat": 48.1836304,
  "lon": 16.3281212,
  "tags": {
    "layer": "-1",
    "name": "Meidling Hauptstraße",
    "network": "U-Bahn Wien",
    "network:wikidata": "Q209400",
    "operator": "Wiener Linien",
    "operator:wikidata": "Q668849",
    "platforms": "2",
    "public_transport": "station",
    "railway": "station",
    "railway:position": "5.3",
    "railway:position:exact": "5.326",
    "railway:ref": "MH",
    "station": "subway",
    "subway": "yes",
    "uic_name": "Wien Meidling Hauptstraße (U4)",
    "wheelchair": "yes",
    "wikidata": "Q873256",
    "wikipedia": "de:U-Bahn-Station Meidling Hauptstraße"
  }
},
{
  "type": "node",
  "id": 1362930609,
  "lat": 46.8373067,
  "lon": 15.3808748,
  "tags": {
    "alt_name": "Wettmannstätten Bahnhof",
    "name": "Wettmannstätten",
    "operator": "ÖBB-Infrastruktur AG",
    "public_transport": "station",
    "railway": "station",
    "railway:position": "31.2 / 17.2",
    "railway:position:exact": "31.225 / 17.210",
    "railway:ref": "Wtt",
    "ref:IFOPT": "at:46:3146:1:zug",
    "uic_ref": "8101809",
    "wheelchair": "yes"
  }
},